,StationName,county,Town,lat,lon,IIiii,tTime,dFy,fFy,T,Tx,Tn,VV,RR
0,赤龙,椒江区,白云街道,28.65472,121.4189,K8001,2022-02-06 20:00:00,80,32,71,72,71,-9999,0
1,绿心,椒江区,葭沚街道,28.638986,121.3521,K8003,2022-02-06 20:00:00,21,40,50,50,49,-9999,0
2,绿心雪深,椒江区,绿心委,28.63889,121.3522,K8031,2022-02-06 20:00:00,-9999,-9999,-9999,-9999,-9999,-9999,0
3,东方红,椒江区,海门街道,28.67805,121.4467,K8101,2022-02-06 20:00:00,75,32,70,71,70,-9999,0
4,涛江闸,椒江区,前所街道,28.69667,121.4897,K8103,2022-02-06 20:00:00,15,33,71,72,71,-9999,0
5,马峙,椒江区,章安街道,28.75389,121.4047,K8104,2022-02-06 20:00:00,5,18,67,71,67,-9999,0
6,大桥,椒江区,章安街道,28.70806,121.3967,K8106,2022-02-06 20:00:00,52,18,73,75,73,9384,0
7,下陈,椒江区,下陈街道,28.59306,121.4592,K8107,2022-02-06 20:00:00,59,35,70,71,69,-9999,0
8,柏树里,椒江区,章安街道,28.73028,121.4508,K8108,2022-02-06 20:00:00,70,37,71,71,70,-9999,0
9,新佳果,椒江区,三甲街道,28.61944,121.5092,K8109,2022-02-06 20:00:00,64,44,70,70,69,-9999,0
10,上大陈,椒江区,大陈镇,28.49639,121.9056,K8110,2022-02-06 20:00:00,40,123,71,71,71,-9999,0
11,二桥,椒江区,前所街道,28.69444,121.4744,K8111,2022-02-06 20:00:00,51,36,67,68,66,20000,0
12,岳头村,椒江区,海门街道,28.66417,121.4556,K8112,2022-02-06 20:00:00,48,32,72,72,72,-9999,0
13,污水厂,椒江区,海门街道,28.64,121.5019,K8113,2022-02-06 20:00:00,25,20,68,70,68,-9999,0
14,雷达站,椒江区,三甲街道,28.61722,121.522441,K8114,2022-02-06 20:00:00,58,25,70,71,70,22796,0
15,挡港桥,椒江区,洪家街道,28.59028,121.3997,K8115,2022-02-06 20:00:00,61,31,70,71,69,-9999,0
16,大陈码头,椒江区,大陈镇,28.45333,121.8894,K8117,2022-02-06 20:00:00,-9999,-9999,-9999,-9999,-9999,30000,0
17,乌石,椒江区,葭沚街道,28.68333,121.375,K8118,2022-02-06 20:00:00,63,28,71,72,71,-9999,0
18,台州湾大桥,椒江区,海门街道,28.67805,121.5119,K8120,2022-02-06 20:00:00,50,52,67,68,67,-9999,0
19,柑橘良种场,椒江区,章安街道,28.73611,121.3692,K8121,2022-02-06 20:00:00,90,56,58,60,58,-9999,0
20,烟草中心,椒江区,三甲街道,28.59,121.5361,K8122,2022-02-06 20:00:00,39,44,71,71,71,-9999,0
21,虾捕,椒江区,大陈镇,28.50553,121.8901,K8123,2022-02-06 20:00:00,59,130,60,60,59,-9999,0
22,洪家二中,椒江区,i洪家街道,28.60372,121.4144,K8124,2022-02-06 20:00:00,121,18,71,72,71,-9999,0
23,上大陈码头,椒江区,大陈镇,28.47861,121.8731,K8125,2022-02-06 20:00:00,-9999,-9999,-9999,-9999,-9999,28335,0
24,江北药业,椒江区,章安街道,28.70611,121.3672,K8127,2022-02-06 20:00:00,102,25,69,70,68,-9999,0
25,李宅村,椒江区,章安街道,28.76,121.3928,K8128,2022-02-06 20:00:00,347,39,65,69,64,-9999,0
26,新民小学,椒江区,前所街道,28.70583,121.4325,K8191,2022-02-06 20:00:00,83,32,73,74,73,-9999,0
27,黄岩局,黄岩区,东城街道,28.6525,121.28,K8201,2022-02-06 20:00:00,98,26,70,72,70,28286,0
28,宁溪,黄岩区,宁溪镇,28.59167,120.9753,K8202,2022-02-06 20:00:00,239,9,50,52,50,-9999,0
29,沙埠,黄岩区,沙埠镇,28.54806,121.1744,K8203,2022-02-06 20:00:00,243,18,60,62,60,-9999,0
30,长潭,黄岩区,北洋镇,28.61028,121.0614,K8204,2022-02-06 20:00:00,160,20,60,61,59,-9999,0
31,头陀,黄岩区,头陀镇,28.67417,121.1369,K8205,2022-02-06 20:00:00,325,10,58,61,58,17044,0
32,富山,黄岩区,富山乡,28.53583,120.9131,K8206,2022-02-06 20:00:00,108,20,7,10,7,-9999,0
33,白石,黄岩区,屿头乡,28.67444,120.9375,K8207,2022-02-06 20:00:00,83,43,2,3,2,-9999,0
34,屿头,黄岩区,屿头乡,28.65211,121.01093,K8208,2022-02-06 20:00:00,337,11,51,53,50,-9999,0
35,上郑,黄岩区,上郑乡,28.60583,120.8744,K8209,2022-02-06 20:00:00,172,10,35,38,35,-9999,0
36,上垟,黄岩区,上垟乡,28.515366,121.008268,K8210,2022-02-06 20:00:00,212,7,51,54,51,18374,0
37,江口,黄岩区,江口街道,28.6903,121.3275,K8212,2022-02-06 20:00:00,127,22,73,74,73,-9999,0
38,院桥,黄岩区,院桥镇,28.54972,121.2781,K8213,2022-02-06 20:00:00,286,12,65,66,65,-9999,0
39,高桥,黄岩区,高桥街道,28.58444,121.2314,K8214,2022-02-06 20:00:00,226,20,63,65,63,-9999,0
40,新前,黄岩区,新前街道,28.68139,121.2067,K8215,2022-02-06 20:00:00,205,15,62,67,62,-9999,0
41,茅畲,黄岩区,茅畲乡,28.595,121.1314,K8216,2022-02-06 20:00:00,106,15,57,59,57,-9999,0
42,澄江,黄岩区,澄江街道,28.63222,121.1736,K8217,2022-02-06 20:00:00,266,17,64,66,64,12796,0
43,科技学院,黄岩区,东城街道,28.66945,121.2539,K8218,2022-02-06 20:00:00,94,13,69,72,69,-9999,0
44,铅锌矿,黄岩区,上郑乡,28.5981,120.92483,K8219,2022-02-06 20:00:00,-9999,-9999,48,49,48,-9999,0
45,北洋,黄岩区,北洋镇,28.63056,121.0978,K8220,2022-02-06 20:00:00,173,9,60,62,60,-9999,0
46,平田,黄岩区,平田乡,28.53806,121.0739,K8221,2022-02-06 20:00:00,171,11,29,31,29,-9999,0
47,大寺基,黄岩区,上郑乡,28.58417,120.7997,K8222,2022-02-06 20:00:00,78,101,-24,-24,-26,-9999,0
48,牌门,黄岩区,宁溪镇,28.53722,120.9522,K8225,2022-02-06 20:00:00,184,10,49,50,49,-9999,0
49,委羽山,黄岩区,西城街道,28.62472,121.2397,K8226,2022-02-06 20:00:00,205,13,69,71,69,28190,0
50,十里铺,黄岩区,南城街道,28.6125,121.2672,K8227,2022-02-06 20:00:00,0,0,62,64,62,-9999,0
51,江心屿,黄岩区,江口街道,28.70555,121.3256,K8228,2022-02-06 20:00:00,0,0,69,70,69,-9999,0
52,白鹭湾,黄岩区,宁溪镇,28.61222,120.9992,K8229,2022-02-06 20:00:00,38,11,55,57,55,-9999,0
53,黄毛山,黄岩区,平田乡,28.57528,121.0769,K8230,2022-02-06 20:00:00,81,35,10,10,9,-9999,0
54,白石雪深,黄岩区,屿头乡,28.67444,120.9375,K8231,2022-02-06 20:00:00,-9999,-9999,-9999,-9999,-9999,-9999,0
55,柑橘所雪深,黄岩区,头陀镇,28.64278,121.1564,K8233,2022-02-06 20:00:00,-9999,-9999,-9999,-9999,-9999,-9999,0
56,城区雪深,黄岩区,北城街道,28.66945,121.2539,K8234,2022-02-06 20:00:00,-9999,-9999,-9999,-9999,-9999,-9999,0
57,大寺基雪深,黄岩区,上郑乡,28.58417,120.7997,K8236,2022-02-06 20:00:00,-9999,-9999,-9999,-9999,-9999,-9999,0
58,东城小学,黄岩区,东城街道,28.65111,121.3006,K8240,2022-02-06 20:00:00,73,17,70,71,70,-9999,0
59,王林,黄岩区,北城街道,28.685,121.2867,K8241,2022-02-06 20:00:00,-9999,-9999,76,77,75,-9999,0
60,长滩,黄岩区,屿头乡,28.66028,120.9892,K8242,2022-02-06 20:00:00,-9999,-9999,51,54,51,-9999,0
61,岭根,黄岩区,宁溪镇,28.54722,120.9364,K8243,2022-02-06 20:00:00,-9999,-9999,49,52,49,-9999,0
62,下抱水库,黄岩区,新前街道,28.70972,121.2208,K8244,2022-02-06 20:00:00,37,13,53,55,53,-9999,0
63,南正顶,黄岩区,富山乡,28.51028,120.8578,K8245,2022-02-06 20:00:00,-9999,-9999,-9,-8,-9,-9999,0
64,蒋东岙,黄岩区,上郑乡,28.6125,120.9275,K8246,2022-02-06 20:00:00,-9999,-9999,37,39,37,-9999,0
65,五尖山,黄岩区,北洋镇,28.66611,121.0386,K8247,2022-02-06 20:00:00,-9999,-9999,32,32,31,-9999,0
66,元同溪闸,黄岩区,头陀镇,28.62417,121.1458,K8248,2022-02-06 20:00:00,253,13,65,67,65,-9999,0
67,黄土岭,黄岩区,北城街道,28.68306,121.2394,K8249,2022-02-06 20:00:00,334,9,69,70,69,-9999,0
68,联丰,黄岩区,北洋镇,28.65278,121.0689,K8250,2022-02-06 20:00:00,-9999,-9999,58,59,58,-9999,0
69,抱料,黄岩区,上郑乡,28.55972,120.8456,K8256,2022-02-06 20:00:00,-9999,-9999,18,20,18,-9999,0
70,决要,黄岩区,富山乡,28.5325,120.8467,K8257,2022-02-06 20:00:00,-9999,-9999,22,25,22,-9999,0
71,福利,黄岩区,宁溪镇,28.6075,120.9708,K8258,2022-02-06 20:00:00,344,12,56,59,55,-9999,0
72,布袋坑,黄岩区,屿头乡,28.70056,120.9442,K8259,2022-02-06 20:00:00,158,22,15,15,15,-9999,0
73,东亚山庄,黄岩区,上郑乡,28.59833,120.82,K8270,2022-02-06 20:00:00,24,0,-21,-21,-22,-9999,0
74,外金,黄岩区,富山乡,28.50778,120.8914,K8271,2022-02-06 20:00:00,325,22,21,22,17,-9999,0
75,后岙,黄岩区,屿头乡,28.66306,120.9097,K8273,2022-02-06 20:00:00,119,26,20,20,20,-9999,0
76,前思岙,黄岩区,上垟乡,28.48611,121.0247,K8274,2022-02-06 20:00:00,242,5,42,45,42,-9999,0
77,兴安,黄岩区,屿头乡,28.65028,120.9594,K8275,2022-02-06 20:00:00,262,8,49,51,49,-9999,0
78,董岙,黄岩区,上垟乡,28.56167,121.0181,K8276,2022-02-06 20:00:00,234,16,60,61,58,-9999,0
79,宁溪B,黄岩区,宁溪镇,28.58167,120.9753,K8282,2022-02-06 20:00:00,250,9,46,48,46,-9999,0
80,柑橘所,黄岩区,头陀镇,28.64278,121.1564,K8283,2022-02-06 20:00:00,283,19,63,64,63,-9999,0
81,路桥,路桥区,路桥街道,28.57528,121.3503,K8301,2022-02-06 20:00:00,78,20,74,75,74,-9999,0
82,横街,路桥区,横街镇,28.52778,121.4456,K8302,2022-02-06 20:00:00,45,29,66,68,66,-9999,0
83,金清,路桥区,金清镇,28.51583,121.4972,K8303,2022-02-06 20:00:00,41,45,71,71,70,20000,0
84,白果,路桥区,金清镇,28.48386,121.62174,K8304,2022-02-06 20:00:00,24,102,62,62,61,-9999,0
85,黄琅,路桥区,金清镇,28.52611,121.5967,K8305,2022-02-06 20:00:00,9,78,72,72,71,-9999,0
86,桐屿,路桥区,桐屿街道,28.58556,121.3344,K8306,2022-02-06 20:00:00,50,13,74,77,74,-9999,0
87,机场,路桥区,路南街道,28.55528,121.4222,K8307,2022-02-06 20:00:00,56,22,70,71,69,-9999,0
88,新桥,路桥区,新桥镇,28.51194,121.4036,K8308,2022-02-06 20:00:00,45,28,68,70,68,-9999,0
89,蓬街,路桥区,蓬街镇,28.55445,121.4694,K8309,2022-02-06 20:00:00,0,0,72,72,71,-9999,0
90,峰江,路桥区,峰江街道,28.54861,121.3681,K8310,2022-02-06 20:00:00,31,40,69,70,69,-9999,0
91,水厂,路桥区,螺洋街道,28.56083,121.33,K8311,2022-02-06 20:00:00,90,26,73,73,73,-9999,0
92,农垦场,路桥区,金清镇,28.50805,121.5872,K8312,2022-02-06 20:00:00,44,85,71,72,71,-9999,0
93,启明村,路桥区,蓬街镇,28.56807,121.51892,K8313,2022-02-06 20:00:00,47,48,71,72,71,-9999,0
94,三山,路桥区, 金清镇,28.56139,121.5944,K8315,2022-02-06 20:00:00,48,95,65,66,65,30000,0
95,鹁鸪嘴,路桥区, 金清镇,28.55056,121.6422,K8316,2022-02-06 20:00:00,35,101,71,71,70,30000,0
96,凉溪,路桥区,桐屿街道,28.61778,121.3067,K8317,2022-02-06 20:00:00,22,11,61,63,61,-9999,0
97,东风村,路桥区,螺洋街道,28.56417,121.3083,K8318,2022-02-06 20:00:00,309,12,67,70,67,10773,0
98,湖屿岛,路桥区, 金清镇,28.45833,121.6653,K8320,2022-02-06 20:00:00,17,109,72,72,71,30000,0
99,保全小学,路桥区,峰江街道,28.52889,121.3761,K8321,2022-02-06 20:00:00,38,23,70,71,69,-9999,0
100,路桥高速,路桥区,金清镇,28.55556,121.5392,K8322,2022-02-06 20:00:00,45,56,72,72,71,20000,0
101,横街小学,路桥区,横街镇,28.53583,121.4328,K8323,2022-02-06 20:00:00,56,29,70,71,70,-9999,0
102,飞龙湖,路桥区,桐屿街道,28.60444,121.3358,K8324,2022-02-06 20:00:00,76,17,70,71,70,-9999,0
103,联盟闸,路桥区,金清镇,28.52083,121.5478,K8325,2022-02-06 20:00:00,29,60,70,70,69,-9999,0
104,龙头王村,路桥区,路桥街道,28.58139,121.3919,K8326,2022-02-06 20:00:00,-9999,-9999,70,71,70,-9999,0
105,下陶村,路桥区,峰江街道,28.53639,121.3953,K8327,2022-02-06 20:00:00,75,18,68,70,68,-9999,0
106,会展中心,路桥区,路北街道,28.5975,121.3692,K8328,2022-02-06 20:00:00,-9999,-9999,75,76,75,-9999,0
107,明珠学校,路桥区,金清镇,28.52,121.5147,K8329,2022-02-06 20:00:00,28,50,71,71,70,-9999,0
108,北大附中,路桥区,桐屿街道,28.60139,121.3047,K8330,2022-02-06 20:00:00,304,12,70,72,70,-9999,0
109,上寺前,路桥区,螺洋街道,28.53889,121.3331,K8340,2022-02-06 20:00:00,-9999,-9999,65,65,63,-9999,0
110,九琅山,路桥区,横街镇,28.51472,121.4469,K8341,2022-02-06 20:00:00,268,23,66,68,65,-9999,0
111,石桥头,温岭市,石桥头镇,28.34945,121.4606,K8401,2022-02-06 20:00:00,41,44,67,68,66,-9999,0
112,黄茅山,温岭市,泽国镇,28.52972,121.3078,K8402,2022-02-06 20:00:00,80,33,51,52,51,-9999,0
113,大溪,温岭市,大溪镇,28.49111,121.2411,K8403,2022-02-06 20:00:00,279,21,66,67,66,-9999,0
114,松门,温岭市,松门镇,28.37111,121.5664,K8404,2022-02-06 20:00:00,314,34,71,71,70,-9999,0
115,坞根,温岭市,坞根镇,28.32472,121.2611,K8405,2022-02-06 20:00:00,355,26,64,67,64,-9999,0
116,横峰,温岭市,横峰街道,28.4475,121.3258,K8406,2022-02-06 20:00:00,81,16,69,69,68,-9999,0
117,石塘渔港,温岭市,石塘镇,28.24639,121.6039,K8407,2022-02-06 20:00:00,30,100,73,74,72,28608,0
118,新河,温岭市,新河镇,28.47806,121.4594,K8408,2022-02-06 20:00:00,43,38,67,67,67,-9999,0
119,东海塘,温岭市,箬横镇,28.42222,121.6081,K8409,2022-02-06 20:00:00,36,85,72,72,71,30000,0
120,岙环,温岭市,城南镇,28.28611,121.3994,K8410,2022-02-06 20:00:00,323,35,65,66,64,-9999,0
121,温峤,温岭市,温峤镇,28.38389,121.3003,K8411,2022-02-06 20:00:00,34,20,65,66,64,-9999,0
122,箬横,温岭市,箬横镇,28.39889,121.5228,K8412,2022-02-06 20:00:00,325,30,72,73,72,-9999,0
123,滨海,温岭市,滨海镇,28.45056,121.5589,K8413,2022-02-06 20:00:00,36,53,68,69,67,30000,0
124,太湖山,温岭市,大溪镇,28.49917,121.2019,K8414,2022-02-06 20:00:00,128,16,34,35,34,-9999,0
125,九洞门,温岭市,松门镇,28.4125,121.6617,K8415,2022-02-06 20:00:00,39,108,71,71,70,-9999,0
126,花芯,温岭市,箬横镇,28.41556,121.4511,K8416,2022-02-06 20:00:00,21,28,53,54,53,-9999,0
127,方山,温岭市,大溪镇,28.42056,121.2528,K8417,2022-02-06 20:00:00,74,56,28,28,27,-9999,0
128,实践基地,温岭市,松门镇,28.32583,121.6189,K8419,2022-02-06 20:00:00,58,76,70,71,69,-9999,0
129,岭脚村,温岭市,温峤镇,28.36194,121.2825,K8420,2022-02-06 20:00:00,55,27,59,60,57,-9999,0
130,山后村,温岭市,城南镇,28.32944,121.3311,K8421,2022-02-06 20:00:00,11,50,65,66,63,-9999,0
131,火车站,温岭市,大溪镇,28.48222,121.3236,K8422,2022-02-06 20:00:00,100,20,71,72,71,-9999,0
132,城东,温岭市,城东街道,28.41195,121.3767,K8423,2022-02-06 20:00:00,358,25,70,71,70,-9999,0
133,城北,温岭市,城北街道,28.45722,121.3997,K8424,2022-02-06 20:00:00,51,45,66,66,65,-9999,0
134,三蒜,温岭市,石塘镇,28.23111,121.6356,K8425,2022-02-06 20:00:00,42,106,68,69,66,27896,0
135,粮食功能区,温岭市,箬横镇,28.41111,121.5644,K8426,2022-02-06 20:00:00,0,59,71,71,70,-9999,0
136,大溪高速,温岭市,大溪镇,28.46889,121.2619,K8427,2022-02-06 20:00:00,232,7,66,69,66,8048,0
137,泽国,温岭市,泽国镇,28.48944,121.3794,K8429,2022-02-06 20:00:00,55,21,64,65,64,-9999,0
138,城西,温岭市,城西街道,28.39,121.3681,K8430,2022-02-06 20:00:00,53,23,69,69,68,-9999,0
139,方山雪深,温岭市,大溪镇,28.42056,121.2428,K8431,2022-02-06 20:00:00,-9999,-9999,-9999,-9999,-9999,-9999,0
140,仰天湖雪深,温岭市,大溪镇,28.49917,121.2019,K8432,2022-02-06 20:00:00,-9999,-9999,-9999,-9999,-9999,-9999,0
141,泽国二小,温岭市,泽国镇,28.49694,121.3361,K8441,2022-02-06 20:00:00,84,32,70,71,70,-9999,0
142,长屿,温岭市,新河镇,28.43611,121.4358,K8442,2022-02-06 20:00:00,94,21,58,60,58,-9999,0
143,高桥小学,温岭市,新河镇,28.48944,121.4331,K8443,2022-02-06 20:00:00,60,39,70,70,69,-9999,0
144,东浦,温岭市,箬横镇,28.345,121.4997,K8444,2022-02-06 20:00:00,24,47,69,70,68,-9999,0
145,北港,温岭市,松门镇,28.43167,121.6581,K8445,2022-02-06 20:00:00,37,87,69,69,68,-9999,0
146,城南小学,温岭市,城南镇,28.325,121.4075,K8446,2022-02-06 20:00:00,6,61,67,67,65,-9999,0
147,温岭南,温岭市,城南镇,28.32778,121.4594,K8447,2022-02-06 20:00:00,28,54,70,70,68,29516,0
148,隔海岛,温岭市,石塘镇,28.30389,121.6469,K8448,2022-02-06 20:00:00,48,102,75,75,73,-9999,0
149,潘郎小学,温岭市,大溪镇,28.45389,121.3058,K8460,2022-02-06 20:00:00,105,18,69,71,69,-9999,0
150,犁头咀,温岭市,城南镇,28.26556,121.4369,K8461,2022-02-06 20:00:00,28,63,65,66,64,-9999,0
151,伍佰屿,温岭市,滨海镇,28.47694,121.6092,K8462,2022-02-06 20:00:00,27,97,73,73,72,-9999,0
152,温岭中学,温岭市,太平街道,28.37472,121.3969,K8463,2022-02-06 20:00:00,285,11,64,68,64,-9999,0
153,滨海中学,温岭市,滨海镇,28.46833,121.5203,K8464,2022-02-06 20:00:00,26,43,70,70,69,-9999,0
154,长屿小学,温岭市,新河镇,28.45111,121.4406,K8465,2022-02-06 20:00:00,36,22,69,69,69,-9999,0
155,青屿校区,温岭市,温峤镇,28.36361,121.2439,K8466,2022-02-06 20:00:00,42,16,60,63,60,25470,0
156,毛竹下,温岭市,大溪镇,28.43833,121.2553,K8467,2022-02-06 20:00:00,-9999,-9999,57,61,56,-9999,0
157,上洋工业区,温岭市,大溪镇,28.43278,121.2506,K8468,2022-02-06 20:00:00,-9999,-9999,60,63,60,-9999,0
158,双溪村,温岭市,大溪镇,28.45528,121.2419,K8469,2022-02-06 20:00:00,-9999,-9999,61,63,61,-9999,0
159,翁岙村,温岭市,大溪镇,28.51611,121.2917,K8470,2022-02-06 20:00:00,-9999,-9999,63,64,62,-9999,0
160,金路村,温岭市,新河镇,28.45861,121.4111,K8471,2022-02-06 20:00:00,-9999,-9999,70,70,69,-9999,0
161,楼岙村,温岭市,新河镇,28.44889,121.4231,K8472,2022-02-06 20:00:00,-9999,-9999,70,71,69,-9999,0
162,屿头村,温岭市,新河镇,28.44667,121.4375,K8473,2022-02-06 20:00:00,-9999,-9999,69,71,67,-9999,0
163,长屿村,温岭市,新河镇,28.44667,121.4456,K8474,2022-02-06 20:00:00,-9999,-9999,64,66,64,-9999,0
164,下呈村,温岭市,坞根镇,28.30278,121.2569,K8475,2022-02-06 20:00:00,-9999,-9999,64,68,63,-9999,0
165,东门村,温岭市,坞根镇,28.33389,121.2178,K8476,2022-02-06 20:00:00,-9999,-9999,67,69,67,-9999,0
166,紫荆校区,温岭市,箬横镇,28.405,121.6108,K8477,2022-02-06 20:00:00,300,68,72,72,71,-9999,0
167,清港,玉环市,清港镇,28.25694,121.2867,K8501,2022-02-06 20:00:00,44,32,67,69,67,-9999,0
168,干江,玉环市,干江镇,28.16639,121.3717,K8502,2022-02-06 20:00:00,49,67,53,53,53,20914,0
169,沙门,玉环市,沙门镇,28.24389,121.3803,K8503,2022-02-06 20:00:00,52,57,67,69,67,-9999,0
170,海山,玉环市,海山乡,28.21,121.1575,K8504,2022-02-06 20:00:00,316,37,68,70,67,27483,0
171,玉城,玉环市,玉城街道,28.12556,121.2369,K8505,2022-02-06 20:00:00,312,21,63,66,63,-9999,1
172,大鹿岛,玉环市,鸡山乡,28.09222,121.4039,K8506,2022-02-06 20:00:00,23,84,69,69,67,-9999,0
173,鲜迭,玉环市,大麦屿街道,28.09167,121.2042,K8507,2022-02-06 20:00:00,349,53,39,40,38,-9999,0
174,花岩浦,玉环市,龙溪乡,28.19611,121.3092,K8510,2022-02-06 20:00:00,21,48,59,59,59,21756,0
175,芦浦,玉环市,芦浦镇,28.19833,121.2414,K8511,2022-02-06 20:00:00,11,45,52,52,51,-9999,0
176,楚门,玉环市,楚门镇,28.21694,121.3014,K8512,2022-02-06 20:00:00,353,25,66,68,66,-9999,0
177,鸡山,玉环市,鸡山乡,28.10611,121.36417,K8513,2022-02-06 20:00:00,33,84,62,63,61,30000,0
178,大麦屿,玉环市,大麦屿街道,28.10306,121.1358,K8517,2022-02-06 20:00:00,14,55,65,65,64,-9999,1
179,龙溪樱桃 ,玉环市,龙溪乡,28.22667,121.3333,K8518,2022-02-06 20:00:00,299,33,64,66,64,-9999,0
180,大雷山,玉环市,清港镇,28.31528,121.3458,K8521,2022-02-06 20:00:00,2,69,36,38,35,-9999,0
181,分水山,玉环县,芦浦镇,28.195,121.2103,K8522,2022-02-06 20:00:00,70,31,64,66,64,19731,0
182,雕鹰山,玉环市,大麦屿街道,28.11917,121.1981,K8527,2022-02-06 20:00:00,4,55,40,40,39,-9999,1
183,乐清二桥,玉环市,海山乡,28.2425,121.1392,K8528,2022-02-06 20:00:00,2,40,-9999,-9999,-9999,28652,0
184,吊船湾,玉环市,沙门镇,28.22222,121.3753,K8530,2022-02-06 20:00:00,28,44,66,69,66,17849,0
185,大雷山雪深,玉环县,清港镇,28.31528,121.3458,K8531,2022-02-06 20:00:00,-9999,-9999,-9999,-9999,-9999,-9999,0
186,大圆头,玉环市,沙门镇,28.24195,121.4161,K8544,2022-02-06 20:00:00,20,86,53,55,52,-9999,0
187,大岩头,玉环市,大麦屿街道,28.04667,121.1631,K8545,2022-02-06 20:00:00,14,71,38,40,37,-9999,3
188,中鹿岛,玉环市,鸡山乡,28.05694,121.4106,K8546,2022-02-06 20:00:00,12,95,62,63,60,-9999,0
189,双龙村,玉环市,坎门街道,28.1,121.255,K8547,2022-02-06 20:00:00,0,0,59,61,57,-9999,0
190,垟岭村,玉环市,干江镇,28.18861,121.3475,K8548,2022-02-06 20:00:00,0,0,52,54,52,-9999,0
191,江岩,玉环市,玉城街道,28.17333,121.1492,K8549,2022-02-06 20:00:00,22,49,50,53,49,-9999,0
192,黄门,玉环市,坎门街道,28.07,121.2361,K8550,2022-02-06 20:00:00,348,81,48,48,45,-9999,0
193,苔山塘,玉环市,清港镇,28.27417,121.2564,K8556,2022-02-06 20:00:00,13,27,64,65,62,-9999,0
194,杜桥,临海市,杜桥镇,28.76667,121.4869,K8601,2022-02-06 20:00:00,67,28,71,73,71,-9999,0
195,涌泉,临海市,涌泉镇,28.75694,121.3186,K8602,2022-02-06 20:00:00,85,30,71,73,71,-9999,0
196,白水洋,临海市,白水洋镇,28.89917,120.9047,K8603,2022-02-06 20:00:00,34,27,71,73,71,-9999,0
197,东塍,临海市,东塍镇,28.92889,121.2622,K8604,2022-02-06 20:00:00,89,28,71,74,71,-9999,0
198,河头,临海市,河头镇,29.00056,121.1142,K8605,2022-02-06 20:00:00,94,14,62,66,62,-9999,0
199,尤溪,临海市,尤溪镇,28.7425,121.1011,K8606,2022-02-06 20:00:00,159,22,63,65,63,-9999,0
200,汛桥,临海市,汛桥镇,28.795,121.1706,K8607,2022-02-06 20:00:00,248,7,65,67,65,-9999,0
201,牛头山,临海市,邵家渡街道,28.84,121.2647,K8608,2022-02-06 20:00:00,139,33,69,71,69,-9999,0
202,小芝,临海市,小芝镇,28.85222,121.4519,K8609,2022-02-06 20:00:00,78,33,64,65,64,-9999,0
203,南门坑,临海市,桃渚镇,28.83722,121.6631,K8610,2022-02-06 20:00:00,63,31,65,67,65,-9999,0
204,白沙,临海市,上盘镇,28.71278,121.6378,K8611,2022-02-06 20:00:00,36,51,65,66,65,30000,0
205,黄家寮,临海市, 括苍镇,28.74833,120.9744,K8612,2022-02-06 20:00:00,-9999,-9999,22,24,22,-9999,0
206,外蔡,临海市,邵家渡街道,28.87944,121.3731,K8613,2022-02-06 20:00:00,0,0,57,60,56,-9999,0
207,汇溪,临海市,汇溪镇,28.95778,121.2133,K8614,2022-02-06 20:00:00,347,10,59,64,59,-9999,0
208,江南,临海市,江南街道,28.79444,121.1206,K8615,2022-02-06 20:00:00,208,20,64,67,64,-9999,0
209,沿江,临海市,沿江镇,28.74611,121.2358,K8616,2022-02-06 20:00:00,255,10,66,67,66,-9999,0
210,大田,临海市,大田镇,28.90444,121.2022,K8617,2022-02-06 20:00:00,107,14,67,72,67,-9999,0
211,永丰,临海市,永丰镇,28.87278,121.0231,K8618,2022-02-06 20:00:00,96,25,66,69,66,-9999,0
212,羊岩山,临海市,河头镇,28.97889,121.1494,K8619,2022-02-06 20:00:00,118,44,9,14,9,-9999,0
213,桃渚镇,临海市,桃渚镇,28.80861,121.5797,K8620,2022-02-06 20:00:00,19,48,67,68,67,-9999,0
214,医化园区,临海市,杜桥镇,28.69306,121.5456,K8621,2022-02-06 20:00:00,37,37,72,73,72,-9999,0
215,两桥村,临海市,古城街道,28.87167,121.0797,K8622,2022-02-06 20:00:00,83,26,65,66,65,-9999,0
216,安桥,临海市,白水洋镇,28.98,120.9153,K8623,2022-02-06 20:00:00,296,12,48,54,48,-9999,0
217,里梅,临海市,白水洋镇,29.01528,120.9958,K8624,2022-02-06 20:00:00,75,15,41,48,41,-9999,0
218,大洋,临海市,永丰镇,28.93361,121.0011,K8625,2022-02-06 20:00:00,333,8,48,54,48,-9999,0
219,岭脚金,临海市,尤溪镇,28.69,121.0728,K8626,2022-02-06 20:00:00,185,10,52,53,52,-9999,0
220,头门,临海市,上盘镇,28.69111,121.7594,K8627,2022-02-06 20:00:00,44,100,69,69,68,30000,0
221,白水洋小学,临海市,白水洋镇,28.91,120.8944,K8628,2022-02-06 20:00:00,15,26,63,67,63,-9999,0
222,雀儿岙,临海市,上盘镇,28.80972,121.8475,K8629,2022-02-06 20:00:00,38,96,71,71,70,30000,0
223,田岙岛,临海市,上盘镇,28.74306,121.8481,K8630,2022-02-06 20:00:00,45,85,69,69,68,-9999,0
224,白水洋雪深,临海市,白水洋镇,28.90055,120.8942,K8633,2022-02-06 20:00:00,-9999,-9999,-9999,-9999,-9999,-9999,0
225,上白岩雪深,临海市,尤溪镇,28.72917,120.9675,K8634,2022-02-06 20:00:00,-9999,-9999,-9999,-9999,-9999,-9999,0
226,安基山雪深,临海市,白水洋镇,29.00028,120.9667,K8635,2022-02-06 20:00:00,-9999,-9999,-9999,-9999,-9999,-9999,0
227,上白岩,临海市,尤溪镇,28.72917,120.9675,K8640,2022-02-06 20:00:00,216,40,8,10,8,-9999,0
228,小溪,临海市,江南街道,28.77222,121.1153,K8641,2022-02-06 20:00:00,275,11,55,59,55,-9999,0
229,岭上村,临海市,邵家渡街道,28.82444,121.2322,K8642,2022-02-06 20:00:00,98,34,58,59,57,-9999,0
230,安基山,临海市,白水洋镇,29.00028,120.9667,K8643,2022-02-06 20:00:00,97,57,-3,0,-3,-9999,0
231,红树林,临海市,小芝镇,28.89333,121.3694,K8644,2022-02-06 20:00:00,48,52,56,57,54,-9999,0
232,南岙村,临海市,邵家渡街道,28.84833,121.3367,K8646,2022-02-06 20:00:00,152,22,62,64,60,-9999,0
233,上西辽,临海市,汇溪镇,29.00528,121.2608,K8647,2022-02-06 20:00:00,347,33,18,22,18,-9999,0
234,乌岩岙,临海市,小芝镇,28.91028,121.4022,K8648,2022-02-06 20:00:00,98,58,44,45,44,-9999,0
235,临港,临海市,杜桥镇,28.71361,121.5781,K8649,2022-02-06 20:00:00,45,48,70,71,70,-9999,0
236,大竹山,临海市,上盘镇,28.71583,121.7297,K8650,2022-02-06 20:00:00,21,103,71,72,70,30000,0
237,桥东,临海市,上盘镇,28.70917,121.7539,K8651,2022-02-06 20:00:00,25,107,74,74,73,-9999,0
238,桥西,临海市,上盘镇,28.71806,121.7117,K8652,2022-02-06 20:00:00,34,89,73,74,73,-9999,0
239,里潘村,临海市,杜桥镇,28.75889,121.5583,K8655,2022-02-06 20:00:00,48,52,69,71,69,30000,0
240,山安,临海市,汇溪镇,29.00583,121.1697,K8656,2022-02-06 20:00:00,46,33,31,36,31,-9999,0
241,城西中学,临海市,括苍镇,28.85695,120.9878,K8657,2022-02-06 20:00:00,68,14,65,68,65,-9999,0
242,北泽岛,临海市,桃渚镇,28.89583,121.7594,K8658,2022-02-06 20:00:00,36,84,68,69,67,-9999,0
243,北固山,临海市,古城街道,28.865,121.1114,K8659,2022-02-06 20:00:00,131,41,65,68,65,-9999,0
244,古城,临海市,古城街道,28.85194,121.1328,K8661,2022-02-06 20:00:00,186,13,71,72,71,-9999,0
245,白岩茶场,临海市,东塍镇,28.95417,121.4064,K8662,2022-02-06 20:00:00,41,88,20,22,20,-9999,0
246,沿岸村,临海市,永丰镇,28.96722,121.0675,K8663,2022-02-06 20:00:00,84,8,61,65,61,-9999,0
247,茶山村,临海市,邵家渡街道,28.87389,121.2828,K8664,2022-02-06 20:00:00,2,43,58,59,58,-9999,0
248,坎门F,玉环市,坎门街道,28.0575,121.2708,K8667,2022-02-06 20:00:00,17,60,-9999,-9999,-9999,-9999,0
249,康谷小学,临海市,东塍镇,28.93139,121.3914,K8668,2022-02-06 20:00:00,354,14,59,61,59,-9999,0
250,兰田山,临海市,涌泉镇,28.82195,121.3711,K8669,2022-02-06 20:00:00,39,48,21,22,21,-9999,0
251,方溪水库,临海市,括苍镇,28.8025,121.0,K8670,2022-02-06 20:00:00,218,33,55,57,55,-9999,0
252,岙陈,临海市,东塍镇,28.89,121.2947,K8671,2022-02-06 20:00:00,181,42,51,53,51,-9999,0
253,桐坑,临海市,东塍镇,28.90083,121.3364,K8672,2022-02-06 20:00:00,57,47,25,27,25,-9999,0
254,洞港,临海市,桃渚镇,28.85278,121.6708,K8673,2022-02-06 20:00:00,94,62,70,71,70,-9999,0
255,临海西,临海市,永丰镇,28.86972,121.0464,K8674,2022-02-06 20:00:00,58,26,67,70,67,21591,0
256,括苍枢纽,临海市,括苍镇,28.87,120.9656,K8675,2022-02-06 20:00:00,103,46,67,69,67,18965,0
257,景山村,临海市,括苍镇,28.82611,120.9667,K8676,2022-02-06 20:00:00,-9999,-9999,36,40,36,-9999,0
258,大泛村,临海市,白水洋镇,29.02639,120.9786,K8677,2022-02-06 20:00:00,-9999,-9999,39,44,39,-9999,0
259,满塘村,临海市,永丰镇,28.9325,121.095,K8678,2022-02-06 20:00:00,150,10,43,48,43,-9999,0
260,丁公园村,临海市,白水洋镇,29.00583,120.9836,K8679,2022-02-06 20:00:00,-9999,-9999,26,31,26,-9999,0
261,尚山村,临海市,括苍镇,28.78111,120.9522,K8680,2022-02-06 20:00:00,-9999,-9999,40,44,40,-9999,0
262,岭根村,临海市,东塍镇,28.95472,121.3808,K8682,2022-02-06 20:00:00,66,35,48,49,48,-9999,0
263,溪口水库,临海市,杜桥镇,28.78583,121.4106,K8683,2022-02-06 20:00:00,349,18,69,71,69,-9999,0
264,大岙西,临海市,白水洋镇,28.95833,120.9269,K8684,2022-02-06 20:00:00,-9999,-9999,52,60,49,-9999,0
265,石门村,临海市,大田街道,28.96167,121.1519,K8685,2022-02-06 20:00:00,-9999,-9999,45,50,45,-9999,0
266,山里村,临海市,大田街道,28.95306,121.1308,K8686,2022-02-06 20:00:00,-9999,-9999,42,48,42,-9999,0
267,岭上蒋,临海市,河头镇,29.04,121.1208,K8687,2022-02-06 20:00:00,-9999,-9999,32,37,32,-9999,0
268,江根村,临海市,汇溪镇,28.99639,121.2142,K8688,2022-02-06 20:00:00,-9999,-9999,45,51,45,-9999,0
269,留山村,临海市,汇溪镇,28.98583,121.205,K8689,2022-02-06 20:00:00,-9999,-9999,30,35,30,-9999,0
270,龙泉村,临海市,白水洋镇,28.95639,120.8956,K8690,2022-02-06 20:00:00,167,23,29,31,29,-9999,0
271,许墅村,临海市,古城街道,28.88639,121.0811,K8691,2022-02-06 20:00:00,0,0,65,66,64,-9999,0
272,溪王村,临海市,汇溪镇,28.995,121.1936,K8692,2022-02-06 20:00:00,-9999,-9999,36,42,36,-9999,0
273,黄支罗,临海市,汇溪镇,29.02222,121.1889,K8693,2022-02-06 20:00:00,-9999,-9999,38,43,38,-9999,0
274,大塘村,临海市,汇溪镇,29.02194,121.2131,K8694,2022-02-06 20:00:00,-9999,-9999,38,42,38,-9999,0
275,王加山,临海市,尤溪镇,28.69889,121.0931,K8695,2022-02-06 20:00:00,-9999,-9999,39,40,39,-9999,0
276,竹家山,临海市,尤溪镇,28.71806,121.0581,K8696,2022-02-06 20:00:00,-9999,-9999,41,43,41,-9999,0
277,长加山,临海市,尤溪镇,28.74667,121.0439,K8697,2022-02-06 20:00:00,-9999,-9999,41,42,40,-9999,0
278,白鹤,天台县,白鹤镇,29.26778,120.9864,K8701,2022-02-06 20:00:00,342,10,44,51,43,-9999,0
279,街头,天台县,街头镇,29.12583,120.7947,K8702,2022-02-06 20:00:00,104,27,51,58,51,-9999,0
280,华顶,天台县,石梁镇,29.25833,121.0914,K8703,2022-02-06 20:00:00,0,0,-25,-23,-25,-9999,0
281,亭头,天台县,三合镇,29.09056,121.1014,K8704,2022-02-06 20:00:00,114,50,60,65,60,-9999,0
282,龙溪,天台县,龙溪乡,29.05167,120.7939,K8705,2022-02-06 20:00:00,162,19,44,51,44,-9999,0
283,南屏,天台县,南屏乡,29.07055,121.0,K8706,2022-02-06 20:00:00,252,17,42,49,41,-9999,0
284,田芯,天台县,街头镇,29.05917,120.7022,K8707,2022-02-06 20:00:00,-9999,-9999,45,54,45,-9999,0
285,下王,天台县,平桥镇,29.14472,120.8625,K8708,2022-02-06 20:00:00,108,22,58,64,58,-9999,0
286,紫凝山,天台县,平桥镇,29.09945,120.8569,K8709,2022-02-06 20:00:00,173,22,28,32,28,-9999,0
287,泳溪,天台县,泳溪乡,29.17194,121.2222,K8711,2022-02-06 20:00:00,147,29,50,54,50,-9999,0
288,坦头,天台县,坦头镇,29.11111,121.1156,K8712,2022-02-06 20:00:00,-9999,-9999,63,67,62,-9999,0
289,龙皇堂,天台县,石梁镇,29.24306,121.0519,K8713,2022-02-06 20:00:00,76,45,0,4,0,-9999,0
290,洪畴,天台县,洪畴镇,29.06778,121.1947,K8714,2022-02-06 20:00:00,90,34,54,60,54,-9999,0
291,雷峰,天台县,雷锋乡,29.08805,120.8956,K8715,2022-02-06 20:00:00,268,11,44,51,44,-9999,0
292,滩岭,天台县,福溪街道,29.06944,121.0575,K8716,2022-02-06 20:00:00,180,26,61,66,61,-9999,0
293,飞鹤,天台县,赤城街道,29.135,121.0372,K8717,2022-02-06 20:00:00,110,18,63,68,63,-9999,0
294,左溪V,天台县,白鹤镇,29.28833,120.9108,K8718,2022-02-06 20:00:00,0,0,-9999,-9999,-9999,12398,0
295,西方洋,天台县,坦头镇,29.12,121.1022,K8719,2022-02-06 20:00:00,145,63,59,64,58,19536,0
296,屯桥,天台县,平桥镇,29.20111,120.8997,K8720,2022-02-06 20:00:00,116,37,55,62,55,-9999,0
297,桐柏,天台县,赤城街道,29.20694,121.0164,K8721,2022-02-06 20:00:00,145,28,26,32,26,-9999,0
298,大雷山,天台县,雷峰乡,29.02028,120.8761,K8722,2022-02-06 20:00:00,167,26,17,21,16,-9999,0
299,柱峰,天台县,龙溪乡,29.02306,120.77,K8723,2022-02-06 20:00:00,137,40,25,29,22,-9999,1
300,职业中专,天台县,福溪街道,29.13806,121.0067,K8724,2022-02-06 20:00:00,113,49,65,70,65,-9999,0
301,三合,天台县,三合镇,29.08805,121.1758,K8725,2022-02-06 20:00:00,74,45,57,61,57,-9999,0
302,里石门,天台县,街头镇,29.07278,120.7303,K8726,2022-02-06 20:00:00,59,42,39,43,39,-9999,0
303,苍山顶,天台县,坦头镇,29.15139,121.1528,K8727,2022-02-06 20:00:00,70,66,-13,-11,-13,-9999,0
304,慈圣,天台县,石梁镇,29.31056,121.0619,K8728,2022-02-06 20:00:00,284,15,33,38,33,-9999,0
305,黄龙水库,天台县,石梁镇,29.22417,121.14,K8729,2022-02-06 20:00:00,109,47,19,22,19,-9999,0
306,天柱林场,天台县,龙溪乡,28.97583,120.8189,K8730,2022-02-06 20:00:00,175,76,-14,-10,-14,-9999,0
307,街头雪深,天台县,街头镇,29.12444,120.7933,K8734,2022-02-06 20:00:00,-9999,-9999,-9999,-9999,-9999,-9999,0
308,柱峰雪深,天台县,龙溪乡,29.02306,120.77,K8735,2022-02-06 20:00:00,-9999,-9999,-9999,-9999,-9999,-9999,0
309,华顶雪深,天台县,石梁镇,29.25833,121.0914,K8737,2022-02-06 20:00:00,-9999,-9999,-9999,-9999,-9999,-9999,0
310,苍山顶雪深,天台县,石梁镇,29.15139,121.1528,K8738,2022-02-06 20:00:00,-9999,-9999,-9999,-9999,-9999,-9999,0
311,溪地,天台县,街头镇,29.07139,120.8411,K8740,2022-02-06 20:00:00,237,10,37,43,37,-9999,0
312,岭下洋,天台县,白鹤镇,29.20361,120.9628,K8741,2022-02-06 20:00:00,151,36,61,66,61,-9999,0
313,三州,天台县,三州乡,29.22639,120.8475,K8746,2022-02-06 20:00:00,327,61,19,23,19,-9999,0
314,下陈胡,天台县,坦头镇,29.115,121.1244,K8747,2022-02-06 20:00:00,157,59,57,63,57,-9999,0
315,后岸,天台县,街头镇,29.07861,120.8139,K8748,2022-02-06 20:00:00,173,24,45,59,45,-9999,0
316,飞鹤山,天台县,赤城街道,29.15195,121.0433,K8749,2022-02-06 20:00:00,132,43,57,63,57,-9999,0
317,茶坑,天台县,街头镇,29.08222,120.7117,K8750,2022-02-06 20:00:00,18,8,38,44,38,-9999,0
318,新城,天台县,始丰街道,29.13389,120.98,K8759,2022-02-06 20:00:00,110,36,63,68,63,-9999,0
319,始丰小学,天台县,始丰街道,29.14778,120.99,K8760,2022-02-06 20:00:00,176,44,63,68,63,-9999,0
320,万年寺,天台县,白鹤镇,29.27333,121.0083,K8761,2022-02-06 20:00:00,358,39,15,16,14,-9999,0
321,下洋村,天台县,石梁镇,29.30833,121.1458,K8762,2022-02-06 20:00:00,101,34,31,32,30,-9999,0
322,寒风缺,天台县,石梁镇,29.22806,121.05,K8763,2022-02-06 20:00:00,339,24,-3,0,-3,-9999,0
323,曹一村,天台县,平桥镇,29.13556,120.885,K8764,2022-02-06 20:00:00,-9999,-9999,56,64,56,-9999,0
324,北山村,天台县,泳溪乡,29.15611,121.1786,K8765,2022-02-06 20:00:00,-9999,-9999,25,28,25,-9999,0
325,东安隐,天台县,洪畴镇,29.09972,121.2333,K8766,2022-02-06 20:00:00,-9999,-9999,27,33,27,-9999,0
326,大横金,天台县,三合镇,29.10306,121.165,K8767,2022-02-06 20:00:00,-9999,-9999,59,64,58,-9999,0
327,九遮山,天台县,街头镇,29.025,120.8392,K8768,2022-02-06 20:00:00,120,11,35,41,35,-9999,1
328,龙潭村,天台县,始丰街道,29.10667,120.9492,K8769,2022-02-06 20:00:00,-9999,-9999,48,57,48,-9999,0
329,左溪,天台县,白鹤镇,29.28889,120.915,K8770,2022-02-06 20:00:00,98,16,31,33,31,-9999,0
330,溪地A,天台县,街头镇,29.05139,120.8411,K8771,2022-02-06 20:00:00,272,10,37,43,37,-9999,0
331,大同寺,天台县,石梁镇,29.29333,121.1458,K8772,2022-02-06 20:00:00,75,36,29,30,27,-9999,0
332,欢岙,天台县,坦头镇,29.18444,121.1128,K8773,2022-02-06 20:00:00,87,80,42,45,41,-9999,0
333,下屋村,天台县,三州乡,29.21722,120.8017,K8774,2022-02-06 20:00:00,78,10,23,28,23,-9999,0
334,灵溪村,天台县,三合镇,29.06417,121.1475,K8780,2022-02-06 20:00:00,9,23,48,53,48,-9999,0
335,坪东村,天台县,洪畴镇,29.08167,121.2158,K8781,2022-02-06 20:00:00,-9999,-9999,48,52,47,-9999,0
336,白鹤小学,天台县,白鹤镇,29.23528,120.9428,K8782,2022-02-06 20:00:00,119,14,56,59,56,-9999,0
337,现代农业园,天台县,平桥镇,29.15333,120.8561,K8783,2022-02-06 20:00:00,119,28,60,65,60,-9999,0
338,西山头,天台县,雷峰乡,29.05528,120.8917,K8784,2022-02-06 20:00:00,235,9,37,43,37,-9999,0
339,翠西村,天台县,南屏乡,29.07028,120.9281,K8785,2022-02-06 20:00:00,-9999,-9999,23,29,23,-9999,0
340,下辽坑,天台县,龙溪乡,29.00028,120.7953,K8786,2022-02-06 20:00:00,-9999,-9999,22,25,21,-9999,0
341,岭里村,天台县,龙溪乡,29.0025,120.8183,K8787,2022-02-06 20:00:00,-9999,-9999,24,29,24,-9999,0
342,兰田,天台县,泳溪乡,29.13417,121.2089,K8788,2022-02-06 20:00:00,296,21,37,42,37,-9999,0
343,周家楼,天台县,平桥镇,29.155,120.7336,K8789,2022-02-06 20:00:00,8,21,29,38,29,-9999,0
344,济溪,天台县,街头镇,29.05389,120.8553,K8790,2022-02-06 20:00:00,-9999,-9999,40,53,40,-9999,0
345,亭旁,三门县,亭旁镇,29.04361,121.3403,K8801,2022-02-06 20:00:00,42,41,56,60,56,-9999,0
346,三角塘,三门县,浦坝港镇,28.93806,121.7144,K8802,2022-02-06 20:00:00,110,58,68,69,68,26813,0
347,蛇蟠,三门县,蛇蟠乡,29.16195,121.5706,K8803,2022-02-06 20:00:00,63,43,67,70,66,-9999,0
348,横渡,三门县,横渡镇,29.01167,121.5094,K8805,2022-02-06 20:00:00,36,30,62,64,62,-9999,0
349,百两岗,三门县,亭旁镇,28.98389,121.3986,K8806,2022-02-06 20:00:00,74,59,26,29,26,-9999,0
350,高枧,三门县,珠岙镇,29.05,121.2208,K8807,2022-02-06 20:00:00,80,46,58,65,58,22744,0
351,山场村,三门县,浦坝港镇,28.8675,121.5128,K8808,2022-02-06 20:00:00,95,35,67,67,63,-9999,0
352,花桥,三门县,花桥镇,28.92083,121.4714,K8809,2022-02-06 20:00:00,14,23,67,68,67,-9999,0
353,健跳,三门县,健跳镇,29.01389,121.6083,K8810,2022-02-06 20:00:00,65,46,67,69,67,30000,0
354,浬浦,三门县,浦坝港镇,28.97111,121.5808,K8811,2022-02-06 20:00:00,3,39,61,63,61,-9999,0
355,叶家村,三门县,海润街道,29.0675,121.4881,K8812,2022-02-06 20:00:00,265,14,56,61,56,-9999,0
356,鹤井村,三门县,浦坝港镇,28.87583,121.6383,K8813,2022-02-06 20:00:00,10,61,64,66,64,30000,0
357,珠岙,三门县,珠岙镇,29.07444,121.2789,K8814,2022-02-06 20:00:00,43,46,52,58,52,-9999,0
358,沙柳,三门县,沙柳街道 ,29.15222,121.4575,K8815,2022-02-06 20:00:00,73,50,61,65,61,-9999,0
359,农业园,三门县,健跳镇,29.10389,121.6006,K8816,2022-02-06 20:00:00,65,55,67,69,67,-9999,0
360,悬诸,三门县,海游街道,29.07528,121.405,K8817,2022-02-06 20:00:00,103,28,53,59,53,-9999,0
361,佃石,三门县,亭旁镇,29.0025,121.3147,K8818,2022-02-06 20:00:00,23,35,50,54,50,-9999,0
362,板樟山,三门县,沙柳街道 ,29.15861,121.3514,K8819,2022-02-06 20:00:00,28,32,42,46,42,-9999,0
363,滨海新城,三门县,海润街道,29.12361,121.48,K8820,2022-02-06 20:00:00,45,39,65,70,65,16880,0
364,浦坝港,三门县,浦坝港镇,28.92694,121.5833,K8821,2022-02-06 20:00:00,42,35,67,68,67,30000,0
365,下南山,三门县,沙柳街道,29.15083,121.3683,K8822,2022-02-06 20:00:00,49,29,41,47,41,-9999,0
366,农气基地,三门县,健跳镇,29.10861,121.5767,K8823,2022-02-06 20:00:00,29,53,66,69,66,-9999,0
367,东屏村,三门县,横渡镇,29.00889,121.4683,K8824,2022-02-06 20:00:00,23,44,63,63,61,-9999,0
368,龙山,三门县,健跳镇,29.06667,121.6792,K8825,2022-02-06 20:00:00,32,69,63,65,63,-9999,0
369,扩塘山,三门县,浦坝港镇,28.89111,121.6617,K8826,2022-02-06 20:00:00,66,53,66,67,65,-9999,0
370,枧头村,三门县,亭旁镇,29.02444,121.3881,K8828,2022-02-06 20:00:00,346,31,30,34,30,-9999,0
371,吴岙,三门县,珠岙镇,29.05445,121.2419,K8829,2022-02-06 20:00:00,101,29,61,65,61,23670,0
372,百两岗雪深,三门县,亭旁镇,28.98389,121.3986,K8831,2022-02-06 20:00:00,-9999,-9999,-9999,-9999,-9999,-9999,0
373,枧头雪深,三门县,珠岙镇,29.02444,121.3881,K8833,2022-02-06 20:00:00,-9999,-9999,-9999,-9999,-9999,-9999,0
374,林场,三门县,海游街道,29.04917,121.4242,K8840,2022-02-06 20:00:00,74,47,8,12,8,-9999,0
375,三门湾,三门县,健跳镇,29.11806,121.5811,K8841,2022-02-06 20:00:00,71,63,68,71,68,30000,0
376,毛石源,三门县,浦坝港镇,28.89611,121.5806,K8843,2022-02-06 20:00:00,18,29,69,70,69,25775,0
377,工业城,三门县,浦坝港镇,28.91778,121.6681,K8844,2022-02-06 20:00:00,37,49,69,70,69,-9999,0
378,海游港,三门县,健跳镇,29.105,121.5181,K8845,2022-02-06 20:00:00,60,60,64,67,64,-9999,0
379,罗岙水库,三门县,健跳镇,29.05445,121.5444,K8846,2022-02-06 20:00:00,334,34,65,67,64,-9999,0
380,西城,三门县,海游街道,29.12056,121.3617,K8847,2022-02-06 20:00:00,128,52,66,72,66,-9999,0
381,小岭下,三门县,浦坝港镇,28.94417,121.6722,K8848,2022-02-06 20:00:00,11,58,70,71,70,-9999,0
382,后周,三门县,沙柳街道,29.15778,121.4103,K8849,2022-02-06 20:00:00,50,47,52,57,51,-9999,0
383,后郭,三门县,海游街道,29.08805,121.3217,K8850,2022-02-06 20:00:00,27,62,46,50,46,-9999,0
384,三门岛,三门县,浦坝港镇,28.96472,121.7919,K8860,2022-02-06 20:00:00,37,79,70,71,70,30000,0
385,五子岛,三门县,浦坝港镇,29.00556,121.7608,K8862,2022-02-06 20:00:00,26,51,69,69,69,30000,0
386,石门坑,三门县,亭旁镇,29.005,121.3572,K8866,2022-02-06 20:00:00,-9999,-9999,54,60,54,-9999,0
387,下吴村,三门县,亭旁镇,29.01889,121.3144,K8867,2022-02-06 20:00:00,-9999,-9999,59,61,57,-9999,0
388,银山村,三门县,花桥镇,28.93361,121.4381,K8868,2022-02-06 20:00:00,-9999,-9999,41,43,41,-9999,0
389,外俞村,三门县,海游街道,29.08639,121.3936,K8869,2022-02-06 20:00:00,-9999,-9999,66,70,66,-9999,0
390,善见村,三门县,横渡镇,28.99195,121.4514,K8870,2022-02-06 20:00:00,-9999,-9999,63,63,61,-9999,0
391,樟树下,三门县,珠岙镇,29.05305,121.2931,K8871,2022-02-06 20:00:00,-9999,-9999,64,67,64,-9999,0
392,五峙山,三门县,浦坝港镇,28.91111,121.7244,K8872,2022-02-06 20:00:00,17,84,71,72,70,30000,0
393,五峙山B,三门县,浦坝港镇,28.91111,121.7244,K8873,2022-02-06 20:00:00,24,86,71,72,71,-9999,0
394,竹墩村,三门县,珠岙镇,29.02417,121.2556,K8874,2022-02-06 20:00:00,31,45,38,43,38,-9999,0
395,邵下村,三门县,亭旁镇,29.06944,121.3683,K8875,2022-02-06 20:00:00,114,43,55,58,55,-9999,0
396,王家村,三门县,海润街道,29.13139,121.4242,K8876,2022-02-06 20:00:00,92,35,50,59,50,-9999,0
397,珠港村,三门县,健跳镇,29.07028,121.6053,K8877,2022-02-06 20:00:00,61,61,65,68,65,-9999,0
398,芝岙村,三门县,花桥镇,28.92694,121.5261,K8878,2022-02-06 20:00:00,7,50,68,69,68,-9999,0
399,长林村,三门县,横渡镇,29.01417,121.4353,K8879,2022-02-06 20:00:00,-9999,-9999,56,58,56,-9999,0
400,里陈坑,三门县,浦坝港镇,28.97528,121.6486,K8880,2022-02-06 20:00:00,-9999,-9999,64,67,64,-9999,0
401,大岙山,三门县,海润街道,29.08055,121.4425,K8881,2022-02-06 20:00:00,-9999,-9999,57,59,55,-9999,0
402,白塔,仙居县,白塔镇,28.72556,120.5786,K8901,2022-02-06 20:00:00,238,10,51,56,51,-9999,0
403,横溪,仙居县,横溪镇,28.72889,120.4772,K8902,2022-02-06 20:00:00,91,13,47,60,47,-9999,0
404,朱溪,仙居县,朱溪镇,28.71806,120.7936,K8903,2022-02-06 20:00:00,346,19,52,54,52,-9999,0
405,广度,仙居县,广度乡,28.94639,120.7519,K8904,2022-02-06 20:00:00,148,14,11,18,11,-9999,1
406,六亩田,仙居县,上张乡,28.62139,120.7147,K8905,2022-02-06 20:00:00,158,19,19,23,19,-9999,1
407,双庙,仙居县,双庙乡,28.78889,120.8575,K8906,2022-02-06 20:00:00,-9999,-9999,56,60,56,-9999,0
408,大陈村,仙居县,埠头镇,28.85028,120.5117,K8907,2022-02-06 20:00:00,30,11,31,36,31,-9999,0
409,柯思,仙居县,田市镇,28.66389,120.6708,K8908,2022-02-06 20:00:00,0,0,46,51,46,-9999,1
410,溪心,仙居县,官路镇,28.895,120.6228,K8909,2022-02-06 20:00:00,-9999,-9999,49,56,49,-9999,0
411,雅溪,仙居县,湫山乡,28.69833,120.3353,K8910,2022-02-06 20:00:00,150,22,33,47,33,-9999,1
412,淡竹,仙居县,淡竹乡,28.67194,120.5706,K8911,2022-02-06 20:00:00,251,29,47,59,47,-9999,1
413,溪港,仙居县,溪港乡,28.57361,120.3961,K8912,2022-02-06 20:00:00,329,5,38,50,38,-9999,2
414,溪口,仙居县,横溪镇,28.645,120.4797,K8913,2022-02-06 20:00:00,206,9,37,44,37,-9999,1
415,苗辽,仙居县,上张乡,28.61611,120.7961,K8914,2022-02-06 20:00:00,-9999,-9999,8,10,8,-9999,0
416,步路,仙居县,步路乡,28.77722,120.7242,K8915,2022-02-06 20:00:00,-9999,-9999,57,60,57,-9999,0
417,安岭,仙居县,安岭乡,28.56083,120.3333,K8916,2022-02-06 20:00:00,114,54,14,22,13,-9999,2
418,下各,仙居县,下各镇,28.83972,120.8778,K8917,2022-02-06 20:00:00,185,19,59,65,59,-9999,0
419,皤滩,仙居县,皤滩镇,28.72583,120.5208,K8918,2022-02-06 20:00:00,0,0,43,50,43,-9999,0
420,对山,仙居县,大战乡,28.76056,120.775,K8919,2022-02-06 20:00:00,151,42,27,30,27,-9999,0
421,山岙,仙居县,横溪镇,28.77944,120.4283,K8920,2022-02-06 20:00:00,0,0,13,18,13,-9999,0
422,蓄能站,仙居县,湫山乡,28.63111,120.4019,K8921,2022-02-06 20:00:00,165,21,12,19,12,-9999,1
423,工业园区,仙居县,福应街道,28.87944,120.8328,K8922,2022-02-06 20:00:00,69,25,66,69,66,-9999,0
424,俞坑,仙居县,淡竹乡,28.54944,120.5878,K8923,2022-02-06 20:00:00,242,36,23,28,23,-9999,0
425,谷坦,仙居县,官路镇,28.87833,120.6025,K8924,2022-02-06 20:00:00,163,11,22,29,22,-9999,0
426,南峰,仙居县,南峰街道,28.825,120.7467,K8925,2022-02-06 20:00:00,49,9,59,63,59,-9999,0
427,湫山,仙居县,湫山乡,28.69833,120.4433,K8926,2022-02-06 20:00:00,0,0,46,53,46,-9999,0
428,四小,仙居县,安洲街道,28.87278,120.7306,K8927,2022-02-06 20:00:00,230,21,65,71,65,-9999,0
429,永狮,仙居县,官路镇,28.81194,120.6328,K8928,2022-02-06 20:00:00,116,5,52,55,52,-9999,0
430,茶溪,仙居县,白塔镇,28.775,120.5811,K8929,2022-02-06 20:00:00,40,12,56,63,56,9262,0
431,大陈村雪深,仙居县,埠头镇,28.85028,120.5117,K8931,2022-02-06 20:00:00,-9999,-9999,-9999,-9999,-9999,-9999,0
432,山岙雪深,仙居县,横溪镇,28.77944,120.4283,K8932,2022-02-06 20:00:00,-9999,-9999,-9999,-9999,-9999,-9999,0
433,横溪雪深,仙居县,横溪镇,28.73333,120.4833,K8933,2022-02-06 20:00:00,-9999,-9999,-9999,-9999,-9999,-9999,0
434,朱溪雪深,仙居县,朱溪镇,28.71806,120.7936,K8934,2022-02-06 20:00:00,-9999,-9999,-9999,-9999,-9999,-9999,0
435,青尖山雪深,仙居县,安洲街道,28.91639,120.7275,K8936,2022-02-06 20:00:00,-9999,-9999,-9999,-9999,-9999,-9999,0
436,朱坑里,仙居县,淡竹乡,28.60417,120.6542,K8942,2022-02-06 20:00:00,35,28,29,36,27,-9999,1
437,吴山后,仙居县,淡竹乡,28.59222,120.5281,K8943,2022-02-06 20:00:00,0,0,17,21,17,-9999,2
438,青尖山,仙居县,福应街道,28.91639,120.7275,K8945,2022-02-06 20:00:00,67,46,-5,-1,-5,-9999,0
439,公盂,仙居县,田市镇,28.63917,120.6425,K8946,2022-02-06 20:00:00,22,22,9,13,9,-9999,0
440,垟庄,仙居县,横溪镇,28.78306,120.5061,K8947,2022-02-06 20:00:00,31,10,50,56,50,-9999,0
441,上蓄能,仙居县,湫山乡,28.64528,120.4169,K8948,2022-02-06 20:00:00,189,60,12,17,12,-9999,1
442,天顶茶场,仙居县,上张乡,28.63583,120.8078,K8949,2022-02-06 20:00:00,50,88,-6,-4,-6,-9999,0
443,西陆,仙居县,下各镇,28.82278,120.8483,K8950,2022-02-06 20:00:00,120,10,54,57,54,-9999,0
444,苍岭西,仙居县,横溪镇,28.76278,120.3233,K8951,2022-02-06 20:00:00,161,63,39,45,39,12823,0
445,西炉村,仙居县,步路乡,28.79694,120.6969,K8952,2022-02-06 20:00:00,195,5,58,61,58,-9999,0
446,芭蕉坑,仙居县,湫山乡,28.65944,120.3575,K8970,2022-02-06 20:00:00,181,15,35,39,35,-9999,1
447,银地村,仙居县,横溪镇,28.81333,120.475,K8971,2022-02-06 20:00:00,189,33,12,16,12,-9999,0
448,牛脚村,仙居县,湫山乡,28.62861,120.4378,K8972,2022-02-06 20:00:00,222,19,16,23,16,-9999,1
449,船山村,仙居县,南峰街道,28.81833,120.7011,K8973,2022-02-06 20:00:00,116,17,53,57,53,-9999,0
450,苍岭东,仙居县,横溪镇,28.75222,120.4072,K8974,2022-02-06 20:00:00,334,13,37,44,37,-9999,0
451,路口,仙居县,安洲街道,28.89278,120.6878,K8975,2022-02-06 20:00:00,93,0,18,22,18,-9999,0
452,景星岩,仙居县,白塔镇,28.7125,120.6536,K8976,2022-02-06 20:00:00,141,21,40,45,40,-9999,0
453,厚仁村,仙居县,白塔镇,28.77695,120.6022,K8977,2022-02-06 20:00:00,62,19,58,61,58,-9999,0
454,双峰隧道南,仙居县,埠头镇,28.87139,120.4986,K8978,2022-02-06 20:00:00,357,20,31,39,31,-9999,0
455,括苍隧道北,仙居县,田市镇,28.63417,120.6733,K8979,2022-02-06 20:00:00,340,12,41,47,41,-9999,0
456,神仙居,仙居县,淡竹乡,28.67945,120.6036,K8980,2022-02-06 20:00:00,186,48,-4,0,-4,-9999,0
457,三角地,仙居县,福应街道,28.9275,120.7975,K8981,2022-02-06 20:00:00,138,45,10,13,10,-9999,0
458,过朗,仙居县,大战乡,28.82222,120.8103,K8983,2022-02-06 20:00:00,0,0,54,61,54,-9999,0
459,祝家辽,仙居县,广度乡,28.96445,120.6733,K8984,2022-02-06 20:00:00,136,25,-6,-4,-6,-9999,0
460,下岸水库,仙居县,溪港乡,28.60528,120.4003,K8985,2022-02-06 20:00:00,178,35,33,48,33,-9999,0
461,山皇堂,仙居县,埠头镇,28.80445,120.545,K8986,2022-02-06 20:00:00,-9999,-9999,37,44,37,-9999,0
462,金坑口,仙居县,皤滩乡,28.66444,120.5092,K8987,2022-02-06 20:00:00,-9999,-9999,35,42,35,-9999,0
463,白岭脚,仙居县,官路镇,28.84361,120.6486,K8988,2022-02-06 20:00:00,-9999,-9999,53,57,53,-9999,0
464,赤龙,椒江区,白云街道,28.65472,121.4189,K8001,2022-02-06 21:00:00,78,34,70,71,70,-9999,0
465,绿心,椒江区,葭沚街道,28.638986,121.3521,K8003,2022-02-06 21:00:00,12,48,48,50,48,-9999,0
466,绿心雪深,椒江区,绿心委,28.63889,121.3522,K8031,2022-02-06 21:00:00,-9999,-9999,-9999,-9999,-9999,-9999,0
467,东方红,椒江区,海门街道,28.67805,121.4467,K8101,2022-02-06 21:00:00,65,39,69,70,69,-9999,0
468,涛江闸,椒江区,前所街道,28.69667,121.4897,K8103,2022-02-06 21:00:00,16,32,70,71,70,-9999,0
469,马峙,椒江区,章安街道,28.75389,121.4047,K8104,2022-02-06 21:00:00,342,17,66,67,66,-9999,0
470,大桥,椒江区,章安街道,28.70806,121.3967,K8106,2022-02-06 21:00:00,56,19,71,73,71,9654,0
471,下陈,椒江区,下陈街道,28.59306,121.4592,K8107,2022-02-06 21:00:00,49,34,69,70,69,-9999,0
472,柏树里,椒江区,章安街道,28.73028,121.4508,K8108,2022-02-06 21:00:00,79,34,68,71,67,-9999,0
473,新佳果,椒江区,三甲街道,28.61944,121.5092,K8109,2022-02-06 21:00:00,63,49,69,70,68,-9999,0
474,上大陈,椒江区,大陈镇,28.49639,121.9056,K8110,2022-02-06 21:00:00,35,109,73,73,71,-9999,0
475,二桥,椒江区,前所街道,28.69444,121.4744,K8111,2022-02-06 21:00:00,40,38,66,67,66,14711,0
476,岳头村,椒江区,海门街道,28.66417,121.4556,K8112,2022-02-06 21:00:00,95,28,71,72,71,-9999,0
477,污水厂,椒江区,海门街道,28.64,121.5019,K8113,2022-02-06 21:00:00,50,24,69,70,68,-9999,0
478,雷达站,椒江区,三甲街道,28.61722,121.522441,K8114,2022-02-06 21:00:00,62,20,69,70,69,24415,0
479,挡港桥,椒江区,洪家街道,28.59028,121.3997,K8115,2022-02-06 21:00:00,40,24,69,70,68,-9999,0
480,一江山,椒江区,大陈镇,28.60861,121.8156,K8116,2022-02-06 21:00:00,19,119,73,73,71,20000,0
481,大陈码头,椒江区,大陈镇,28.45333,121.8894,K8117,2022-02-06 21:00:00,-9999,-9999,-9999,-9999,-9999,30000,0
482,乌石,椒江区,葭沚街道,28.68333,121.375,K8118,2022-02-06 21:00:00,34,22,69,71,69,-9999,0
483,台州湾大桥,椒江区,海门街道,28.67805,121.5119,K8120,2022-02-06 21:00:00,28,49,66,67,66,-9999,0
484,柑橘良种场,椒江区,章安街道,28.73611,121.3692,K8121,2022-02-06 21:00:00,98,44,57,58,57,-9999,0
485,烟草中心,椒江区,三甲街道,28.59,121.5361,K8122,2022-02-06 21:00:00,20,40,70,71,70,-9999,0
486,虾捕,椒江区,大陈镇,28.50553,121.8901,K8123,2022-02-06 21:00:00,67,118,61,61,60,-9999,0
487,洪家二中,椒江区,i洪家街道,28.60372,121.4144,K8124,2022-02-06 21:00:00,33,21,71,71,71,-9999,0
488,上大陈码头,椒江区,大陈镇,28.47861,121.8731,K8125,2022-02-06 21:00:00,-9999,-9999,-9999,-9999,-9999,30000,0
489,一江码头,椒江区,大陈镇,28.58675,121.81045,K8126,2022-02-06 21:00:00,-9999,-9999,-9999,-9999,-9999,30000,0
490,江北药业,椒江区,章安街道,28.70611,121.3672,K8127,2022-02-06 21:00:00,39,18,67,69,67,-9999,0
491,李宅村,椒江区,章安街道,28.76,121.3928,K8128,2022-02-06 21:00:00,359,40,65,68,64,-9999,0
492,新民小学,椒江区,前所街道,28.70583,121.4325,K8191,2022-02-06 21:00:00,48,28,71,73,71,-9999,0
493,黄岩局,黄岩区,东城街道,28.6525,121.28,K8201,2022-02-06 21:00:00,87,21,68,70,68,27586,0
494,宁溪,黄岩区,宁溪镇,28.59167,120.9753,K8202,2022-02-06 21:00:00,281,11,47,50,46,-9999,1
495,沙埠,黄岩区,沙埠镇,28.54806,121.1744,K8203,2022-02-06 21:00:00,255,17,57,60,57,-9999,0
496,长潭,黄岩区,北洋镇,28.61028,121.0614,K8204,2022-02-06 21:00:00,263,23,57,60,57,-9999,0
497,头陀,黄岩区,头陀镇,28.67417,121.1369,K8205,2022-02-06 21:00:00,344,11,56,58,56,15595,0
498,富山,黄岩区,富山乡,28.53583,120.9131,K8206,2022-02-06 21:00:00,122,30,4,8,4,-9999,1
499,白石,黄岩区,屿头乡,28.67444,120.9375,K8207,2022-02-06 21:00:00,70,38,-1,2,-1,-9999,1
500,屿头,黄岩区,屿头乡,28.65211,121.01093,K8208,2022-02-06 21:00:00,346,11,45,51,45,-9999,0
501,上郑,黄岩区,上郑乡,28.60583,120.8744,K8209,2022-02-06 21:00:00,317,10,31,35,31,-9999,1
502,上垟,黄岩区,上垟乡,28.515366,121.008268,K8210,2022-02-06 21:00:00,56,4,46,51,46,14683,0
503,江口,黄岩区,江口街道,28.6903,121.3275,K8212,2022-02-06 21:00:00,71,25,70,73,70,-9999,0
504,院桥,黄岩区,院桥镇,28.54972,121.2781,K8213,2022-02-06 21:00:00,276,10,63,65,62,-9999,0
505,高桥,黄岩区,高桥街道,28.58444,121.2314,K8214,2022-02-06 21:00:00,220,16,61,63,61,-9999,0
506,新前,黄岩区,新前街道,28.68139,121.2067,K8215,2022-02-06 21:00:00,318,13,62,64,62,-9999,0
507,茅畲,黄岩区,茅畲乡,28.595,121.1314,K8216,2022-02-06 21:00:00,77,15,53,57,53,-9999,0
508,澄江,黄岩区,澄江街道,28.63222,121.1736,K8217,2022-02-06 21:00:00,267,17,62,64,62,8887,0
509,科技学院,黄岩区,东城街道,28.66945,121.2539,K8218,2022-02-06 21:00:00,89,10,68,69,68,-9999,0
510,铅锌矿,黄岩区,上郑乡,28.5981,120.92483,K8219,2022-02-06 21:00:00,-9999,-9999,41,47,41,-9999,0
511,北洋,黄岩区,北洋镇,28.63056,121.0978,K8220,2022-02-06 21:00:00,211,8,55,60,55,-9999,0
512,平田,黄岩区,平田乡,28.53806,121.0739,K8221,2022-02-06 21:00:00,163,6,28,30,28,-9999,0
513,大寺基,黄岩区,上郑乡,28.58417,120.7997,K8222,2022-02-06 21:00:00,97,106,-22,-21,-24,-9999,0
514,牌门,黄岩区,宁溪镇,28.53722,120.9522,K8225,2022-02-06 21:00:00,98,6,44,49,44,-9999,1
515,委羽山,黄岩区,西城街道,28.62472,121.2397,K8226,2022-02-06 21:00:00,209,10,66,69,66,25972,0
516,十里铺,黄岩区,南城街道,28.6125,121.2672,K8227,2022-02-06 21:00:00,0,0,60,62,60,-9999,0
517,江心屿,黄岩区,江口街道,28.70555,121.3256,K8228,2022-02-06 21:00:00,0,0,67,69,67,-9999,0
518,白鹭湾,黄岩区,宁溪镇,28.61222,120.9992,K8229,2022-02-06 21:00:00,28,10,50,55,50,-9999,0
519,黄毛山,黄岩区,平田乡,28.57528,121.0769,K8230,2022-02-06 21:00:00,87,49,6,9,6,-9999,0
520,白石雪深,黄岩区,屿头乡,28.67444,120.9375,K8231,2022-02-06 21:00:00,-9999,-9999,-9999,-9999,-9999,-9999,0
521,柑橘所雪深,黄岩区,头陀镇,28.64278,121.1564,K8233,2022-02-06 21:00:00,-9999,-9999,-9999,-9999,-9999,-9999,0
522,城区雪深,黄岩区,北城街道,28.66945,121.2539,K8234,2022-02-06 21:00:00,-9999,-9999,-9999,-9999,-9999,-9999,0
523,大寺基雪深,黄岩区,上郑乡,28.58417,120.7997,K8236,2022-02-06 21:00:00,-9999,-9999,-9999,-9999,-9999,-9999,0
524,东城小学,黄岩区,东城街道,28.65111,121.3006,K8240,2022-02-06 21:00:00,132,13,68,70,68,-9999,0
525,王林,黄岩区,北城街道,28.685,121.2867,K8241,2022-02-06 21:00:00,-9999,-9999,72,76,72,-9999,0
526,长滩,黄岩区,屿头乡,28.66028,120.9892,K8242,2022-02-06 21:00:00,-9999,-9999,44,51,43,-9999,0
527,岭根,黄岩区,宁溪镇,28.54722,120.9364,K8243,2022-02-06 21:00:00,-9999,-9999,43,49,43,-9999,0
528,下抱水库,黄岩区,新前街道,28.70972,121.2208,K8244,2022-02-06 21:00:00,38,15,50,53,50,-9999,0
529,南正顶,黄岩区,富山乡,28.51028,120.8578,K8245,2022-02-06 21:00:00,-9999,-9999,-9,-9,-10,-9999,0
530,蒋东岙,黄岩区,上郑乡,28.6125,120.9275,K8246,2022-02-06 21:00:00,-9999,-9999,31,37,31,-9999,0
531,五尖山,黄岩区,北洋镇,28.66611,121.0386,K8247,2022-02-06 21:00:00,-9999,-9999,26,32,25,-9999,0
532,元同溪闸,黄岩区,头陀镇,28.62417,121.1458,K8248,2022-02-06 21:00:00,294,12,62,65,62,-9999,0
533,黄土岭,黄岩区,北城街道,28.68306,121.2394,K8249,2022-02-06 21:00:00,16,9,67,69,67,-9999,0
534,联丰,黄岩区,北洋镇,28.65278,121.0689,K8250,2022-02-06 21:00:00,-9999,-9999,53,58,53,-9999,0
535,抱料,黄岩区,上郑乡,28.55972,120.8456,K8256,2022-02-06 21:00:00,-9999,-9999,16,18,16,-9999,2
536,决要,黄岩区,富山乡,28.5325,120.8467,K8257,2022-02-06 21:00:00,-9999,-9999,19,21,19,-9999,0
537,福利,黄岩区,宁溪镇,28.6075,120.9708,K8258,2022-02-06 21:00:00,333,12,49,56,49,-9999,0
538,布袋坑,黄岩区,屿头乡,28.70056,120.9442,K8259,2022-02-06 21:00:00,235,18,11,15,11,-9999,0
539,东亚山庄,黄岩区,上郑乡,28.59833,120.82,K8270,2022-02-06 21:00:00,24,0,-20,-20,-21,-9999,0
540,外金,黄岩区,富山乡,28.50778,120.8914,K8271,2022-02-06 21:00:00,277,38,20,22,18,-9999,3
541,后岙,黄岩区,屿头乡,28.66306,120.9097,K8273,2022-02-06 21:00:00,81,22,15,19,15,-9999,1
542,前思岙,黄岩区,上垟乡,28.48611,121.0247,K8274,2022-02-06 21:00:00,0,0,39,42,39,-9999,0
543,兴安,黄岩区,屿头乡,28.65028,120.9594,K8275,2022-02-06 21:00:00,245,9,43,49,43,-9999,0
544,董岙,黄岩区,上垟乡,28.56167,121.0181,K8276,2022-02-06 21:00:00,293,13,53,60,52,-9999,0
545,宁溪B,黄岩区,宁溪镇,28.58167,120.9753,K8282,2022-02-06 21:00:00,244,10,43,46,42,-9999,1
546,柑橘所,黄岩区,头陀镇,28.64278,121.1564,K8283,2022-02-06 21:00:00,296,19,60,63,60,-9999,0
547,路桥,路桥区,路桥街道,28.57528,121.3503,K8301,2022-02-06 21:00:00,20,22,73,74,73,-9999,0
548,横街,路桥区,横街镇,28.52778,121.4456,K8302,2022-02-06 21:00:00,19,34,67,67,66,-9999,0
549,金清,路桥区,金清镇,28.51583,121.4972,K8303,2022-02-06 21:00:00,32,41,70,71,70,20000,0
550,白果,路桥区,金清镇,28.48386,121.62174,K8304,2022-02-06 21:00:00,27,96,62,63,62,-9999,0
551,黄琅,路桥区,金清镇,28.52611,121.5967,K8305,2022-02-06 21:00:00,15,84,72,72,71,-9999,0
552,桐屿,路桥区,桐屿街道,28.58556,121.3344,K8306,2022-02-06 21:00:00,6,19,72,75,72,-9999,0
553,机场,路桥区,路南街道,28.55528,121.4222,K8307,2022-02-06 21:00:00,19,31,69,71,69,-9999,0
554,新桥,路桥区,新桥镇,28.51194,121.4036,K8308,2022-02-06 21:00:00,29,24,67,69,66,-9999,0
555,蓬街,路桥区,蓬街镇,28.55445,121.4694,K8309,2022-02-06 21:00:00,0,1,71,72,71,-9999,0
556,峰江,路桥区,峰江街道,28.54861,121.3681,K8310,2022-02-06 21:00:00,26,30,68,69,68,-9999,0
557,水厂,路桥区,螺洋街道,28.56083,121.33,K8311,2022-02-06 21:00:00,96,32,71,73,70,-9999,0
558,农垦场,路桥区,金清镇,28.50805,121.5872,K8312,2022-02-06 21:00:00,45,66,72,72,71,-9999,0
559,启明村,路桥区,蓬街镇,28.56807,121.51892,K8313,2022-02-06 21:00:00,61,46,71,72,71,-9999,0
560,三山,路桥区, 金清镇,28.56139,121.5944,K8315,2022-02-06 21:00:00,47,89,66,66,65,30000,0
561,鹁鸪嘴,路桥区, 金清镇,28.55056,121.6422,K8316,2022-02-06 21:00:00,40,92,71,71,70,30000,0
562,凉溪,路桥区,桐屿街道,28.61778,121.3067,K8317,2022-02-06 21:00:00,303,15,60,61,60,-9999,0
563,东风村,路桥区,螺洋街道,28.56417,121.3083,K8318,2022-02-06 21:00:00,291,17,65,67,65,9632,0
564,湖屿岛,路桥区, 金清镇,28.45833,121.6653,K8320,2022-02-06 21:00:00,14,113,73,73,72,30000,0
565,保全小学,路桥区,峰江街道,28.52889,121.3761,K8321,2022-02-06 21:00:00,52,22,69,70,67,-9999,0
566,路桥高速,路桥区,金清镇,28.55556,121.5392,K8322,2022-02-06 21:00:00,42,49,71,72,71,20000,0
567,横街小学,路桥区,横街镇,28.53583,121.4328,K8323,2022-02-06 21:00:00,68,23,69,70,69,-9999,0
568,飞龙湖,路桥区,桐屿街道,28.60444,121.3358,K8324,2022-02-06 21:00:00,8,18,67,71,67,-9999,0
569,联盟闸,路桥区,金清镇,28.52083,121.5478,K8325,2022-02-06 21:00:00,43,64,71,71,70,-9999,0
570,龙头王村,路桥区,路桥街道,28.58139,121.3919,K8326,2022-02-06 21:00:00,-9999,-9999,70,70,69,-9999,0
571,下陶村,路桥区,峰江街道,28.53639,121.3953,K8327,2022-02-06 21:00:00,29,26,69,70,68,-9999,0
572,会展中心,路桥区,路北街道,28.5975,121.3692,K8328,2022-02-06 21:00:00,-9999,-9999,73,75,73,-9999,0
573,明珠学校,路桥区,金清镇,28.52,121.5147,K8329,2022-02-06 21:00:00,29,42,71,71,71,-9999,0
574,北大附中,路桥区,桐屿街道,28.60139,121.3047,K8330,2022-02-06 21:00:00,60,12,69,70,69,-9999,0
575,上寺前,路桥区,螺洋街道,28.53889,121.3331,K8340,2022-02-06 21:00:00,-9999,-9999,63,65,63,-9999,0
576,九琅山,路桥区,横街镇,28.51472,121.4469,K8341,2022-02-06 21:00:00,302,25,68,68,64,-9999,0
577,石桥头,温岭市,石桥头镇,28.34945,121.4606,K8401,2022-02-06 21:00:00,337,47,68,69,66,-9999,0
578,黄茅山,温岭市,泽国镇,28.52972,121.3078,K8402,2022-02-06 21:00:00,64,27,50,52,50,-9999,0
579,大溪,温岭市,大溪镇,28.49111,121.2411,K8403,2022-02-06 21:00:00,280,21,65,66,65,-9999,0
580,松门,温岭市,松门镇,28.37111,121.5664,K8404,2022-02-06 21:00:00,332,45,71,71,71,-9999,0
581,坞根,温岭市,坞根镇,28.32472,121.2611,K8405,2022-02-06 21:00:00,26,35,67,67,64,-9999,0
582,横峰,温岭市,横峰街道,28.4475,121.3258,K8406,2022-02-06 21:00:00,89,16,69,69,68,-9999,0
583,石塘渔港,温岭市,石塘镇,28.24639,121.6039,K8407,2022-02-06 21:00:00,32,91,74,74,73,27060,0
584,新河,温岭市,新河镇,28.47806,121.4594,K8408,2022-02-06 21:00:00,49,25,66,67,65,-9999,0
585,东海塘,温岭市,箬横镇,28.42222,121.6081,K8409,2022-02-06 21:00:00,26,76,73,74,72,30000,0
586,岙环,温岭市,城南镇,28.28611,121.3994,K8410,2022-02-06 21:00:00,334,32,66,66,65,-9999,0
587,温峤,温岭市,温峤镇,28.38389,121.3003,K8411,2022-02-06 21:00:00,60,24,65,66,63,-9999,0
588,箬横,温岭市,箬横镇,28.39889,121.5228,K8412,2022-02-06 21:00:00,329,33,73,73,72,-9999,0
589,滨海,温岭市,滨海镇,28.45056,121.5589,K8413,2022-02-06 21:00:00,31,64,69,69,67,30000,0
590,太湖山,温岭市,大溪镇,28.49917,121.2019,K8414,2022-02-06 21:00:00,45,31,33,35,33,-9999,0
591,九洞门,温岭市,松门镇,28.4125,121.6617,K8415,2022-02-06 21:00:00,40,104,71,72,71,-9999,0
592,花芯,温岭市,箬横镇,28.41556,121.4511,K8416,2022-02-06 21:00:00,10,32,54,54,53,-9999,0
593,方山,温岭市,大溪镇,28.42056,121.2528,K8417,2022-02-06 21:00:00,66,51,27,28,27,-9999,0
594,实践基地,温岭市,松门镇,28.32583,121.6189,K8419,2022-02-06 21:00:00,30,72,71,72,71,-9999,0
595,岭脚村,温岭市,温峤镇,28.36194,121.2825,K8420,2022-02-06 21:00:00,57,30,60,60,58,-9999,0
596,山后村,温岭市,城南镇,28.32944,121.3311,K8421,2022-02-06 21:00:00,32,58,65,66,64,-9999,0
597,火车站,温岭市,大溪镇,28.48222,121.3236,K8422,2022-02-06 21:00:00,38,26,71,71,70,-9999,0
598,城东,温岭市,城东街道,28.41195,121.3767,K8423,2022-02-06 21:00:00,352,32,70,71,70,-9999,0
599,城北,温岭市,城北街道,28.45722,121.3997,K8424,2022-02-06 21:00:00,52,41,64,66,64,-9999,0
600,三蒜,温岭市,石塘镇,28.23111,121.6356,K8425,2022-02-06 21:00:00,41,104,69,69,68,24536,0
601,粮食功能区,温岭市,箬横镇,28.41111,121.5644,K8426,2022-02-06 21:00:00,359,62,71,71,70,-9999,0
602,大溪高速,温岭市,大溪镇,28.46889,121.2619,K8427,2022-02-06 21:00:00,281,11,66,67,66,16032,0
603,泽国,温岭市,泽国镇,28.48944,121.3794,K8429,2022-02-06 21:00:00,66,24,64,64,64,-9999,0
604,城西,温岭市,城西街道,28.39,121.3681,K8430,2022-02-06 21:00:00,13,26,69,69,69,-9999,0
605,方山雪深,温岭市,大溪镇,28.42056,121.2428,K8431,2022-02-06 21:00:00,-9999,-9999,-9999,-9999,-9999,-9999,0
606,仰天湖雪深,温岭市,大溪镇,28.49917,121.2019,K8432,2022-02-06 21:00:00,-9999,-9999,-9999,-9999,-9999,-9999,0
607,泽国二小,温岭市,泽国镇,28.49694,121.3361,K8441,2022-02-06 21:00:00,37,18,69,70,69,-9999,0
608,长屿,温岭市,新河镇,28.43611,121.4358,K8442,2022-02-06 21:00:00,88,21,57,58,57,-9999,0
609,高桥小学,温岭市,新河镇,28.48944,121.4331,K8443,2022-02-06 21:00:00,28,34,69,70,69,-9999,0
610,东浦,温岭市,箬横镇,28.345,121.4997,K8444,2022-02-06 21:00:00,11,53,70,70,69,-9999,0
611,北港,温岭市,松门镇,28.43167,121.6581,K8445,2022-02-06 21:00:00,35,92,69,70,69,-9999,0
612,城南小学,温岭市,城南镇,28.325,121.4075,K8446,2022-02-06 21:00:00,2,59,67,68,66,-9999,0
613,温岭南,温岭市,城南镇,28.32778,121.4594,K8447,2022-02-06 21:00:00,34,57,70,71,70,30000,0
614,隔海岛,温岭市,石塘镇,28.30389,121.6469,K8448,2022-02-06 21:00:00,46,101,75,76,75,-9999,0
615,潘郎小学,温岭市,大溪镇,28.45389,121.3058,K8460,2022-02-06 21:00:00,20,14,68,69,68,-9999,0
616,犁头咀,温岭市,城南镇,28.26556,121.4369,K8461,2022-02-06 21:00:00,33,68,67,67,65,-9999,0
617,伍佰屿,温岭市,滨海镇,28.47694,121.6092,K8462,2022-02-06 21:00:00,29,89,74,74,73,-9999,0
618,温岭中学,温岭市,太平街道,28.37472,121.3969,K8463,2022-02-06 21:00:00,341,23,67,67,64,-9999,0
619,滨海中学,温岭市,滨海镇,28.46833,121.5203,K8464,2022-02-06 21:00:00,42,44,70,70,70,-9999,0
620,长屿小学,温岭市,新河镇,28.45111,121.4406,K8465,2022-02-06 21:00:00,77,27,69,70,69,-9999,0
621,青屿校区,温岭市,温峤镇,28.36361,121.2439,K8466,2022-02-06 21:00:00,42,38,64,64,59,28594,0
622,毛竹下,温岭市,大溪镇,28.43833,121.2553,K8467,2022-02-06 21:00:00,-9999,-9999,56,57,56,-9999,0
623,上洋工业区,温岭市,大溪镇,28.43278,121.2506,K8468,2022-02-06 21:00:00,-9999,-9999,60,61,60,-9999,0
624,双溪村,温岭市,大溪镇,28.45528,121.2419,K8469,2022-02-06 21:00:00,-9999,-9999,60,61,60,-9999,0
625,翁岙村,温岭市,大溪镇,28.51611,121.2917,K8470,2022-02-06 21:00:00,-9999,-9999,62,63,61,-9999,0
626,金路村,温岭市,新河镇,28.45861,121.4111,K8471,2022-02-06 21:00:00,-9999,-9999,68,70,68,-9999,0
627,楼岙村,温岭市,新河镇,28.44889,121.4231,K8472,2022-02-06 21:00:00,-9999,-9999,69,71,68,-9999,0
628,屿头村,温岭市,新河镇,28.44667,121.4375,K8473,2022-02-06 21:00:00,-9999,-9999,70,71,69,-9999,0
629,长屿村,温岭市,新河镇,28.44667,121.4456,K8474,2022-02-06 21:00:00,-9999,-9999,65,66,64,-9999,0
630,下呈村,温岭市,坞根镇,28.30278,121.2569,K8475,2022-02-06 21:00:00,-9999,-9999,66,66,64,-9999,0
631,东门村,温岭市,坞根镇,28.33389,121.2178,K8476,2022-02-06 21:00:00,-9999,-9999,69,70,67,-9999,0
632,紫荆校区,温岭市,箬横镇,28.405,121.6108,K8477,2022-02-06 21:00:00,286,65,72,72,72,-9999,0
633,清港,玉环市,清港镇,28.25694,121.2867,K8501,2022-02-06 21:00:00,43,43,68,68,67,-9999,0
634,干江,玉环市,干江镇,28.16639,121.3717,K8502,2022-02-06 21:00:00,42,78,52,53,52,20251,0
635,沙门,玉环市,沙门镇,28.24389,121.3803,K8503,2022-02-06 21:00:00,58,67,68,68,67,-9999,0
636,海山,玉环市,海山乡,28.21,121.1575,K8504,2022-02-06 21:00:00,314,38,67,69,64,25657,0
637,玉城,玉环市,玉城街道,28.12556,121.2369,K8505,2022-02-06 21:00:00,295,19,64,64,63,-9999,1
638,大鹿岛,玉环市,鸡山乡,28.09222,121.4039,K8506,2022-02-06 21:00:00,24,84,69,69,68,-9999,0
639,鲜迭,玉环市,大麦屿街道,28.09167,121.2042,K8507,2022-02-06 21:00:00,7,58,38,40,38,-9999,0
640,花岩浦,玉环市,龙溪乡,28.19611,121.3092,K8510,2022-02-06 21:00:00,14,43,58,59,58,19276,0
641,芦浦,玉环市,芦浦镇,28.19833,121.2414,K8511,2022-02-06 21:00:00,7,42,50,52,49,-9999,1
642,楚门,玉环市,楚门镇,28.21694,121.3014,K8512,2022-02-06 21:00:00,29,35,67,67,66,-9999,0
643,鸡山,玉环市,鸡山乡,28.10611,121.36417,K8513,2022-02-06 21:00:00,28,92,62,63,62,30000,0
644,大麦屿,玉环市,大麦屿街道,28.10306,121.1358,K8517,2022-02-06 21:00:00,41,58,64,65,63,-9999,0
645,龙溪樱桃 ,玉环市,龙溪乡,28.22667,121.3333,K8518,2022-02-06 21:00:00,340,34,65,66,64,-9999,0
646,大雷山,玉环市,清港镇,28.31528,121.3458,K8521,2022-02-06 21:00:00,3,78,38,38,36,-9999,0
647,分水山,玉环县,芦浦镇,28.195,121.2103,K8522,2022-02-06 21:00:00,75,30,64,66,62,18542,0
648,雕鹰山,玉环市,大麦屿街道,28.11917,121.1981,K8527,2022-02-06 21:00:00,39,76,39,40,39,-9999,1
649,乐清二桥,玉环市,海山乡,28.2425,121.1392,K8528,2022-02-06 21:00:00,20,50,-9999,-9999,-9999,29979,0
650,吊船湾,玉环市,沙门镇,28.22222,121.3753,K8530,2022-02-06 21:00:00,32,53,68,68,66,19752,0
651,大雷山雪深,玉环县,清港镇,28.31528,121.3458,K8531,2022-02-06 21:00:00,-9999,-9999,-9999,-9999,-9999,-9999,0
652,大圆头,玉环市,沙门镇,28.24195,121.4161,K8544,2022-02-06 21:00:00,45,87,55,55,53,-9999,0
653,大岩头,玉环市,大麦屿街道,28.04667,121.1631,K8545,2022-02-06 21:00:00,36,92,40,41,38,-9999,1
654,中鹿岛,玉环市,鸡山乡,28.05694,121.4106,K8546,2022-02-06 21:00:00,46,105,62,62,61,-9999,0
655,双龙村,玉环市,坎门街道,28.1,121.255,K8547,2022-02-06 21:00:00,0,0,59,60,59,-9999,0
656,垟岭村,玉环市,干江镇,28.18861,121.3475,K8548,2022-02-06 21:00:00,0,0,53,53,52,-9999,0
657,江岩,玉环市,玉城街道,28.17333,121.1492,K8549,2022-02-06 21:00:00,45,67,49,50,48,-9999,1
658,黄门,玉环市,坎门街道,28.07,121.2361,K8550,2022-02-06 21:00:00,10,97,47,49,46,-9999,1
659,苔山塘,玉环市,清港镇,28.27417,121.2564,K8556,2022-02-06 21:00:00,358,31,64,64,62,-9999,0
660,杜桥,临海市,杜桥镇,28.76667,121.4869,K8601,2022-02-06 21:00:00,337,19,71,71,70,-9999,0
661,涌泉,临海市,涌泉镇,28.75694,121.3186,K8602,2022-02-06 21:00:00,348,18,69,71,69,-9999,0
662,白水洋,临海市,白水洋镇,28.89917,120.9047,K8603,2022-02-06 21:00:00,50,33,61,70,61,-9999,0
663,东塍,临海市,东塍镇,28.92889,121.2622,K8604,2022-02-06 21:00:00,94,18,68,71,68,-9999,0
664,河头,临海市,河头镇,29.00056,121.1142,K8605,2022-02-06 21:00:00,100,18,59,62,59,-9999,0
665,尤溪,临海市,尤溪镇,28.7425,121.1011,K8606,2022-02-06 21:00:00,150,16,57,63,57,-9999,0
666,汛桥,临海市,汛桥镇,28.795,121.1706,K8607,2022-02-06 21:00:00,242,3,61,65,61,-9999,0
667,牛头山,临海市,邵家渡街道,28.84,121.2647,K8608,2022-02-06 21:00:00,160,34,68,70,68,-9999,0
668,小芝,临海市,小芝镇,28.85222,121.4519,K8609,2022-02-06 21:00:00,26,24,62,64,62,-9999,0
669,南门坑,临海市,桃渚镇,28.83722,121.6631,K8610,2022-02-06 21:00:00,12,29,65,67,65,-9999,0
670,白沙,临海市,上盘镇,28.71278,121.6378,K8611,2022-02-06 21:00:00,49,41,65,65,65,30000,0
671,黄家寮,临海市, 括苍镇,28.74833,120.9744,K8612,2022-02-06 21:00:00,-9999,-9999,17,22,17,-9999,0
672,外蔡,临海市,邵家渡街道,28.87944,121.3731,K8613,2022-02-06 21:00:00,0,0,54,58,54,-9999,0
673,汇溪,临海市,汇溪镇,28.95778,121.2133,K8614,2022-02-06 21:00:00,326,7,56,59,56,-9999,0
674,江南,临海市,江南街道,28.79444,121.1206,K8615,2022-02-06 21:00:00,260,12,59,64,59,-9999,0
675,沿江,临海市,沿江镇,28.74611,121.2358,K8616,2022-02-06 21:00:00,0,0,63,66,63,-9999,0
676,大田,临海市,大田镇,28.90444,121.2022,K8617,2022-02-06 21:00:00,90,18,66,68,65,-9999,0
677,永丰,临海市,永丰镇,28.87278,121.0231,K8618,2022-02-06 21:00:00,80,25,62,66,62,-9999,0
678,羊岩山,临海市,河头镇,28.97889,121.1494,K8619,2022-02-06 21:00:00,105,54,6,9,6,-9999,1
679,桃渚镇,临海市,桃渚镇,28.80861,121.5797,K8620,2022-02-06 21:00:00,31,48,65,67,64,-9999,0
680,医化园区,临海市,杜桥镇,28.69306,121.5456,K8621,2022-02-06 21:00:00,38,29,71,73,71,-9999,0
681,两桥村,临海市,古城街道,28.87167,121.0797,K8622,2022-02-06 21:00:00,78,23,58,65,58,-9999,0
682,安桥,临海市,白水洋镇,28.98,120.9153,K8623,2022-02-06 21:00:00,293,16,43,48,43,-9999,0
683,里梅,临海市,白水洋镇,29.01528,120.9958,K8624,2022-02-06 21:00:00,81,35,40,43,40,-9999,1
684,大洋,临海市,永丰镇,28.93361,121.0011,K8625,2022-02-06 21:00:00,324,3,45,48,45,-9999,0
685,岭脚金,临海市,尤溪镇,28.69,121.0728,K8626,2022-02-06 21:00:00,199,9,47,52,47,-9999,0
686,头门,临海市,上盘镇,28.69111,121.7594,K8627,2022-02-06 21:00:00,33,98,69,69,69,30000,0
687,白水洋小学,临海市,白水洋镇,28.91,120.8944,K8628,2022-02-06 21:00:00,17,27,58,63,58,-9999,0
688,雀儿岙,临海市,上盘镇,28.80972,121.8475,K8629,2022-02-06 21:00:00,30,96,71,71,70,29641,0
689,田岙岛,临海市,上盘镇,28.74306,121.8481,K8630,2022-02-06 21:00:00,32,77,69,69,69,-9999,0
690,白水洋雪深,临海市,白水洋镇,28.90055,120.8942,K8633,2022-02-06 21:00:00,-9999,-9999,-9999,-9999,-9999,-9999,0
691,上白岩雪深,临海市,尤溪镇,28.72917,120.9675,K8634,2022-02-06 21:00:00,-9999,-9999,-9999,-9999,-9999,-9999,0
692,安基山雪深,临海市,白水洋镇,29.00028,120.9667,K8635,2022-02-06 21:00:00,-9999,-9999,-9999,-9999,-9999,-9999,0
693,上白岩,临海市,尤溪镇,28.72917,120.9675,K8640,2022-02-06 21:00:00,197,52,5,8,4,-9999,0
694,小溪,临海市,江南街道,28.77222,121.1153,K8641,2022-02-06 21:00:00,263,8,51,55,51,-9999,0
695,岭上村,临海市,邵家渡街道,28.82444,121.2322,K8642,2022-02-06 21:00:00,78,31,55,58,55,-9999,0
696,安基山,临海市,白水洋镇,29.00028,120.9667,K8643,2022-02-06 21:00:00,95,57,-5,-3,-5,-9999,0
697,红树林,临海市,小芝镇,28.89333,121.3694,K8644,2022-02-06 21:00:00,58,40,53,56,53,-9999,0
698,南岙村,临海市,邵家渡街道,28.84833,121.3367,K8646,2022-02-06 21:00:00,173,32,61,63,58,-9999,0
699,上西辽,临海市,汇溪镇,29.00528,121.2608,K8647,2022-02-06 21:00:00,104,45,14,17,14,-9999,0
700,乌岩岙,临海市,小芝镇,28.91028,121.4022,K8648,2022-02-06 21:00:00,90,55,41,44,41,-9999,0
701,临港,临海市,杜桥镇,28.71361,121.5781,K8649,2022-02-06 21:00:00,44,44,70,70,70,-9999,0
702,大竹山,临海市,上盘镇,28.71583,121.7297,K8650,2022-02-06 21:00:00,20,102,71,72,70,30000,0
703,桥东,临海市,上盘镇,28.70917,121.7539,K8651,2022-02-06 21:00:00,44,100,74,74,73,-9999,0
704,桥西,临海市,上盘镇,28.71806,121.7117,K8652,2022-02-06 21:00:00,45,89,74,74,73,-9999,0
705,里潘村,临海市,杜桥镇,28.75889,121.5583,K8655,2022-02-06 21:00:00,23,67,68,70,68,30000,0
706,山安,临海市,汇溪镇,29.00583,121.1697,K8656,2022-02-06 21:00:00,84,25,27,31,27,-9999,0
707,城西中学,临海市,括苍镇,28.85695,120.9878,K8657,2022-02-06 21:00:00,86,18,60,65,60,-9999,0
708,北泽岛,临海市,桃渚镇,28.89583,121.7594,K8658,2022-02-06 21:00:00,31,77,67,68,67,-9999,0
709,北固山,临海市,古城街道,28.865,121.1114,K8659,2022-02-06 21:00:00,146,30,64,65,64,-9999,0
710,古城,临海市,古城街道,28.85194,121.1328,K8661,2022-02-06 21:00:00,45,18,69,71,69,-9999,0
711,白岩茶场,临海市,东塍镇,28.95417,121.4064,K8662,2022-02-06 21:00:00,40,83,16,20,16,-9999,0
712,沿岸村,临海市,永丰镇,28.96722,121.0675,K8663,2022-02-06 21:00:00,250,11,55,61,55,-9999,0
713,茶山村,临海市,邵家渡街道,28.87389,121.2828,K8664,2022-02-06 21:00:00,4,50,55,58,55,-9999,0
714,坎门F,玉环市,坎门街道,28.0575,121.2708,K8667,2022-02-06 21:00:00,11,66,-9999,-9999,-9999,-9999,0
715,康谷小学,临海市,东塍镇,28.93139,121.3914,K8668,2022-02-06 21:00:00,340,32,59,60,58,-9999,0
716,兰田山,临海市,涌泉镇,28.82195,121.3711,K8669,2022-02-06 21:00:00,55,52,19,21,19,-9999,0
717,方溪水库,临海市,括苍镇,28.8025,121.0,K8670,2022-02-06 21:00:00,221,29,49,55,48,-9999,1
718,岙陈,临海市,东塍镇,28.89,121.2947,K8671,2022-02-06 21:00:00,252,35,48,51,48,-9999,0
719,桐坑,临海市,东塍镇,28.90083,121.3364,K8672,2022-02-06 21:00:00,29,42,23,25,23,-9999,0
720,洞港,临海市,桃渚镇,28.85278,121.6708,K8673,2022-02-06 21:00:00,75,46,70,70,70,-9999,0
721,临海西,临海市,永丰镇,28.86972,121.0464,K8674,2022-02-06 21:00:00,94,29,63,67,63,22460,0
722,括苍枢纽,临海市,括苍镇,28.87,120.9656,K8675,2022-02-06 21:00:00,106,40,62,67,62,18178,0
723,景山村,临海市,括苍镇,28.82611,120.9667,K8676,2022-02-06 21:00:00,-9999,-9999,25,35,25,-9999,0
724,大泛村,临海市,白水洋镇,29.02639,120.9786,K8677,2022-02-06 21:00:00,-9999,-9999,37,39,37,-9999,0
725,满塘村,临海市,永丰镇,28.9325,121.095,K8678,2022-02-06 21:00:00,84,11,38,43,38,-9999,0
726,丁公园村,临海市,白水洋镇,29.00583,120.9836,K8679,2022-02-06 21:00:00,-9999,-9999,23,26,23,-9999,0
727,尚山村,临海市,括苍镇,28.78111,120.9522,K8680,2022-02-06 21:00:00,-9999,-9999,36,41,35,-9999,0
728,岭根村,临海市,东塍镇,28.95472,121.3808,K8682,2022-02-06 21:00:00,68,48,44,48,44,-9999,0
729,溪口水库,临海市,杜桥镇,28.78583,121.4106,K8683,2022-02-06 21:00:00,313,19,67,69,67,-9999,0
730,大岙西,临海市,白水洋镇,28.95833,120.9269,K8684,2022-02-06 21:00:00,-9999,-9999,43,51,43,-9999,0
731,石门村,临海市,大田街道,28.96167,121.1519,K8685,2022-02-06 21:00:00,-9999,-9999,42,45,42,-9999,0
732,山里村,临海市,大田街道,28.95306,121.1308,K8686,2022-02-06 21:00:00,-9999,-9999,40,42,40,-9999,0
733,岭上蒋,临海市,河头镇,29.04,121.1208,K8687,2022-02-06 21:00:00,-9999,-9999,29,32,29,-9999,0
734,江根村,临海市,汇溪镇,28.99639,121.2142,K8688,2022-02-06 21:00:00,-9999,-9999,42,45,42,-9999,0
735,留山村,临海市,汇溪镇,28.98583,121.205,K8689,2022-02-06 21:00:00,-9999,-9999,27,30,27,-9999,0
736,龙泉村,临海市,白水洋镇,28.95639,120.8956,K8690,2022-02-06 21:00:00,101,29,23,29,23,-9999,0
737,许墅村,临海市,古城街道,28.88639,121.0811,K8691,2022-02-06 21:00:00,0,0,57,64,57,-9999,0
738,溪王村,临海市,汇溪镇,28.995,121.1936,K8692,2022-02-06 21:00:00,-9999,-9999,34,36,34,-9999,0
739,黄支罗,临海市,汇溪镇,29.02222,121.1889,K8693,2022-02-06 21:00:00,-9999,-9999,36,38,36,-9999,0
740,大塘村,临海市,汇溪镇,29.02194,121.2131,K8694,2022-02-06 21:00:00,-9999,-9999,35,38,35,-9999,0
741,王加山,临海市,尤溪镇,28.69889,121.0931,K8695,2022-02-06 21:00:00,-9999,-9999,34,39,34,-9999,0
742,竹家山,临海市,尤溪镇,28.71806,121.0581,K8696,2022-02-06 21:00:00,-9999,-9999,35,41,35,-9999,0
743,长加山,临海市,尤溪镇,28.74667,121.0439,K8697,2022-02-06 21:00:00,-9999,-9999,34,40,34,-9999,0
744,白鹤,天台县,白鹤镇,29.26778,120.9864,K8701,2022-02-06 21:00:00,124,7,42,44,42,-9999,0
745,街头,天台县,街头镇,29.12583,120.7947,K8702,2022-02-06 21:00:00,268,15,47,51,47,-9999,0
746,华顶,天台县,石梁镇,29.25833,121.0914,K8703,2022-02-06 21:00:00,0,0,-24,-24,-26,-9999,0
747,亭头,天台县,三合镇,29.09056,121.1014,K8704,2022-02-06 21:00:00,121,32,56,59,56,-9999,0
748,龙溪,天台县,龙溪乡,29.05167,120.7939,K8705,2022-02-06 21:00:00,0,0,41,44,41,-9999,0
749,南屏,天台县,南屏乡,29.07055,121.0,K8706,2022-02-06 21:00:00,66,9,38,42,38,-9999,1
750,田芯,天台县,街头镇,29.05917,120.7022,K8707,2022-02-06 21:00:00,-9999,-9999,43,46,43,-9999,1
751,下王,天台县,平桥镇,29.14472,120.8625,K8708,2022-02-06 21:00:00,110,30,56,58,56,-9999,0
752,紫凝山,天台县,平桥镇,29.09945,120.8569,K8709,2022-02-06 21:00:00,166,12,25,28,25,-9999,0
753,泳溪,天台县,泳溪乡,29.17194,121.2222,K8711,2022-02-06 21:00:00,87,24,48,50,48,-9999,0
754,坦头,天台县,坦头镇,29.11111,121.1156,K8712,2022-02-06 21:00:00,-9999,-9999,59,63,59,-9999,0
755,龙皇堂,天台县,石梁镇,29.24306,121.0519,K8713,2022-02-06 21:00:00,118,39,-2,0,-2,-9999,0
756,洪畴,天台县,洪畴镇,29.06778,121.1947,K8714,2022-02-06 21:00:00,145,37,50,54,50,-9999,0
757,雷峰,天台县,雷锋乡,29.08805,120.8956,K8715,2022-02-06 21:00:00,222,10,41,44,41,-9999,0
758,滩岭,天台县,福溪街道,29.06944,121.0575,K8716,2022-02-06 21:00:00,19,15,56,61,56,-9999,0
759,飞鹤,天台县,赤城街道,29.135,121.0372,K8717,2022-02-06 21:00:00,116,13,60,63,60,-9999,0
760,左溪V,天台县,白鹤镇,29.28833,120.9108,K8718,2022-02-06 21:00:00,0,0,-9999,-9999,-9999,11110,0
761,西方洋,天台县,坦头镇,29.12,121.1022,K8719,2022-02-06 21:00:00,144,66,55,59,55,17618,0
762,屯桥,天台县,平桥镇,29.20111,120.8997,K8720,2022-02-06 21:00:00,127,31,52,55,52,-9999,0
763,桐柏,天台县,赤城街道,29.20694,121.0164,K8721,2022-02-06 21:00:00,40,25,26,26,25,-9999,0
764,大雷山,天台县,雷峰乡,29.02028,120.8761,K8722,2022-02-06 21:00:00,144,31,13,17,13,-9999,1
765,柱峰,天台县,龙溪乡,29.02306,120.77,K8723,2022-02-06 21:00:00,103,41,21,25,20,-9999,1
766,职业中专,天台县,福溪街道,29.13806,121.0067,K8724,2022-02-06 21:00:00,112,44,61,65,61,-9999,0
767,三合,天台县,三合镇,29.08805,121.1758,K8725,2022-02-06 21:00:00,62,39,53,56,53,-9999,0
768,里石门,天台县,街头镇,29.07278,120.7303,K8726,2022-02-06 21:00:00,38,33,36,39,36,-9999,0
769,苍山顶,天台县,坦头镇,29.15139,121.1528,K8727,2022-02-06 21:00:00,57,65,-14,-13,-14,-9999,0
770,慈圣,天台县,石梁镇,29.31056,121.0619,K8728,2022-02-06 21:00:00,266,11,31,33,31,-9999,0
771,黄龙水库,天台县,石梁镇,29.22417,121.14,K8729,2022-02-06 21:00:00,132,25,16,18,16,-9999,0
772,天柱林场,天台县,龙溪乡,28.97583,120.8189,K8730,2022-02-06 21:00:00,167,68,-15,-13,-15,-9999,0
773,街头雪深,天台县,街头镇,29.12444,120.7933,K8734,2022-02-06 21:00:00,-9999,-9999,-9999,-9999,-9999,-9999,0
774,柱峰雪深,天台县,龙溪乡,29.02306,120.77,K8735,2022-02-06 21:00:00,-9999,-9999,-9999,-9999,-9999,-9999,0
775,华顶雪深,天台县,石梁镇,29.25833,121.0914,K8737,2022-02-06 21:00:00,-9999,-9999,-9999,-9999,-9999,-9999,0
776,苍山顶雪深,天台县,石梁镇,29.15139,121.1528,K8738,2022-02-06 21:00:00,-9999,-9999,-9999,-9999,-9999,-9999,0
777,溪地,天台县,街头镇,29.07139,120.8411,K8740,2022-02-06 21:00:00,127,7,36,37,36,-9999,0
778,岭下洋,天台县,白鹤镇,29.20361,120.9628,K8741,2022-02-06 21:00:00,153,38,58,61,58,-9999,0
779,三州,天台县,三州乡,29.22639,120.8475,K8746,2022-02-06 21:00:00,264,65,16,19,16,-9999,0
780,下陈胡,天台县,坦头镇,29.115,121.1244,K8747,2022-02-06 21:00:00,136,63,54,57,54,-9999,0
781,后岸,天台县,街头镇,29.07861,120.8139,K8748,2022-02-06 21:00:00,7,14,43,45,43,-9999,0
782,飞鹤山,天台县,赤城街道,29.15195,121.0433,K8749,2022-02-06 21:00:00,120,46,54,57,54,-9999,0
783,茶坑,天台县,街头镇,29.08222,120.7117,K8750,2022-02-06 21:00:00,183,18,35,38,35,-9999,1
784,新城,天台县,始丰街道,29.13389,120.98,K8759,2022-02-06 21:00:00,74,45,60,63,60,-9999,0
785,始丰小学,天台县,始丰街道,29.14778,120.99,K8760,2022-02-06 21:00:00,168,39,60,63,60,-9999,0
786,万年寺,天台县,白鹤镇,29.27333,121.0083,K8761,2022-02-06 21:00:00,204,38,12,15,12,-9999,1
787,下洋村,天台县,石梁镇,29.30833,121.1458,K8762,2022-02-06 21:00:00,134,34,29,31,29,-9999,0
788,寒风缺,天台县,石梁镇,29.22806,121.05,K8763,2022-02-06 21:00:00,338,32,-6,-2,-6,-9999,0
789,曹一村,天台县,平桥镇,29.13556,120.885,K8764,2022-02-06 21:00:00,-9999,-9999,54,61,53,-9999,0
790,北山村,天台县,泳溪乡,29.15611,121.1786,K8765,2022-02-06 21:00:00,-9999,-9999,23,25,22,-9999,0
791,东安隐,天台县,洪畴镇,29.09972,121.2333,K8766,2022-02-06 21:00:00,-9999,-9999,26,27,26,-9999,0
792,大横金,天台县,三合镇,29.10306,121.165,K8767,2022-02-06 21:00:00,-9999,-9999,54,59,54,-9999,0
793,九遮山,天台县,街头镇,29.025,120.8392,K8768,2022-02-06 21:00:00,244,8,34,35,34,-9999,0
794,龙潭村,天台县,始丰街道,29.10667,120.9492,K8769,2022-02-06 21:00:00,-9999,-9999,44,48,44,-9999,0
795,左溪,天台县,白鹤镇,29.28889,120.915,K8770,2022-02-06 21:00:00,120,11,30,31,30,-9999,0
796,溪地A,天台县,街头镇,29.05139,120.8411,K8771,2022-02-06 21:00:00,164,11,36,37,35,-9999,1
797,大同寺,天台县,石梁镇,29.29333,121.1458,K8772,2022-02-06 21:00:00,120,37,27,29,27,-9999,1
798,欢岙,天台县,坦头镇,29.18444,121.1128,K8773,2022-02-06 21:00:00,115,80,41,43,41,-9999,0
799,下屋村,天台县,三州乡,29.21722,120.8017,K8774,2022-02-06 21:00:00,141,20,22,24,22,-9999,0
800,灵溪村,天台县,三合镇,29.06417,121.1475,K8780,2022-02-06 21:00:00,253,34,50,52,48,-9999,0
801,坪东村,天台县,洪畴镇,29.08167,121.2158,K8781,2022-02-06 21:00:00,-9999,-9999,47,49,46,-9999,0
802,白鹤小学,天台县,白鹤镇,29.23528,120.9428,K8782,2022-02-06 21:00:00,162,15,52,56,52,-9999,0
803,现代农业园,天台县,平桥镇,29.15333,120.8561,K8783,2022-02-06 21:00:00,102,22,57,60,57,-9999,0
804,西山头,天台县,雷峰乡,29.05528,120.8917,K8784,2022-02-06 21:00:00,240,5,37,37,37,-9999,0
805,翠西村,天台县,南屏乡,29.07028,120.9281,K8785,2022-02-06 21:00:00,-9999,-9999,23,24,23,-9999,0
806,下辽坑,天台县,龙溪乡,29.00028,120.7953,K8786,2022-02-06 21:00:00,-9999,-9999,20,22,20,-9999,0
807,岭里村,天台县,龙溪乡,29.0025,120.8183,K8787,2022-02-06 21:00:00,-9999,-9999,19,23,19,-9999,0
808,兰田,天台县,泳溪乡,29.13417,121.2089,K8788,2022-02-06 21:00:00,191,16,35,37,35,-9999,0
809,周家楼,天台县,平桥镇,29.155,120.7336,K8789,2022-02-06 21:00:00,243,12,24,29,24,-9999,0
810,济溪,天台县,街头镇,29.05389,120.8553,K8790,2022-02-06 21:00:00,-9999,-9999,39,40,37,-9999,0
811,亭旁,三门县,亭旁镇,29.04361,121.3403,K8801,2022-02-06 21:00:00,44,43,55,56,55,-9999,0
812,三角塘,三门县,浦坝港镇,28.93806,121.7144,K8802,2022-02-06 21:00:00,125,53,67,68,67,25878,0
813,蛇蟠,三门县,蛇蟠乡,29.16195,121.5706,K8803,2022-02-06 21:00:00,56,34,64,67,64,-9999,0
814,横渡,三门县,横渡镇,29.01167,121.5094,K8805,2022-02-06 21:00:00,25,37,60,62,59,-9999,0
815,百两岗,三门县,亭旁镇,28.98389,121.3986,K8806,2022-02-06 21:00:00,58,53,23,26,22,-9999,0
816,高枧,三门县,珠岙镇,29.05,121.2208,K8807,2022-02-06 21:00:00,91,35,54,58,54,19503,0
817,山场村,三门县,浦坝港镇,28.8675,121.5128,K8808,2022-02-06 21:00:00,88,37,65,67,65,-9999,0
818,花桥,三门县,花桥镇,28.92083,121.4714,K8809,2022-02-06 21:00:00,4,33,65,67,65,-9999,0
819,健跳,三门县,健跳镇,29.01389,121.6083,K8810,2022-02-06 21:00:00,54,41,65,67,65,30000,0
820,浬浦,三门县,浦坝港镇,28.97111,121.5808,K8811,2022-02-06 21:00:00,4,45,59,61,59,-9999,0
821,叶家村,三门县,海润街道,29.0675,121.4881,K8812,2022-02-06 21:00:00,219,8,53,56,53,-9999,0
822,鹤井村,三门县,浦坝港镇,28.87583,121.6383,K8813,2022-02-06 21:00:00,8,49,62,64,62,30000,0
823,珠岙,三门县,珠岙镇,29.07444,121.2789,K8814,2022-02-06 21:00:00,36,53,50,52,49,-9999,0
824,沙柳,三门县,沙柳街道 ,29.15222,121.4575,K8815,2022-02-06 21:00:00,61,49,59,62,59,-9999,0
825,农业园,三门县,健跳镇,29.10389,121.6006,K8816,2022-02-06 21:00:00,57,36,65,67,65,-9999,0
826,悬诸,三门县,海游街道,29.07528,121.405,K8817,2022-02-06 21:00:00,113,31,53,55,52,-9999,0
827,佃石,三门县,亭旁镇,29.0025,121.3147,K8818,2022-02-06 21:00:00,57,31,47,50,47,-9999,0
828,板樟山,三门县,沙柳街道 ,29.15861,121.3514,K8819,2022-02-06 21:00:00,324,15,39,42,39,-9999,0
829,滨海新城,三门县,海润街道,29.12361,121.48,K8820,2022-02-06 21:00:00,41,32,62,64,62,15956,0
830,浦坝港,三门县,浦坝港镇,28.92694,121.5833,K8821,2022-02-06 21:00:00,26,33,65,67,65,30000,0
831,下南山,三门县,沙柳街道,29.15083,121.3683,K8822,2022-02-06 21:00:00,58,17,39,41,39,-9999,0
832,农气基地,三门县,健跳镇,29.10861,121.5767,K8823,2022-02-06 21:00:00,39,37,64,66,64,-9999,0
833,东屏村,三门县,横渡镇,29.00889,121.4683,K8824,2022-02-06 21:00:00,64,50,57,63,57,-9999,0
834,龙山,三门县,健跳镇,29.06667,121.6792,K8825,2022-02-06 21:00:00,17,49,62,63,62,-9999,0
835,扩塘山,三门县,浦坝港镇,28.89111,121.6617,K8826,2022-02-06 21:00:00,45,54,65,66,65,-9999,0
836,枧头村,三门县,亭旁镇,29.02444,121.3881,K8828,2022-02-06 21:00:00,357,28,27,31,27,-9999,0
837,吴岙,三门县,珠岙镇,29.05445,121.2419,K8829,2022-02-06 21:00:00,97,35,58,62,57,19111,0
838,百两岗雪深,三门县,亭旁镇,28.98389,121.3986,K8831,2022-02-06 21:00:00,-9999,-9999,-9999,-9999,-9999,-9999,0
839,枧头雪深,三门县,珠岙镇,29.02444,121.3881,K8833,2022-02-06 21:00:00,-9999,-9999,-9999,-9999,-9999,-9999,0
840,林场,三门县,海游街道,29.04917,121.4242,K8840,2022-02-06 21:00:00,49,49,6,8,6,-9999,0
841,三门湾,三门县,健跳镇,29.11806,121.5811,K8841,2022-02-06 21:00:00,61,41,67,69,67,30000,0
842,毛石源,三门县,浦坝港镇,28.89611,121.5806,K8843,2022-02-06 21:00:00,30,30,65,69,65,26613,0
843,工业城,三门县,浦坝港镇,28.91778,121.6681,K8844,2022-02-06 21:00:00,20,39,67,69,67,-9999,0
844,海游港,三门县,健跳镇,29.105,121.5181,K8845,2022-02-06 21:00:00,59,48,62,64,62,-9999,0
845,罗岙水库,三门县,健跳镇,29.05445,121.5444,K8846,2022-02-06 21:00:00,340,33,62,64,62,-9999,0
846,西城,三门县,海游街道,29.12056,121.3617,K8847,2022-02-06 21:00:00,346,29,65,66,64,-9999,0
847,小岭下,三门县,浦坝港镇,28.94417,121.6722,K8848,2022-02-06 21:00:00,18,61,69,70,69,-9999,0
848,后周,三门县,沙柳街道,29.15778,121.4103,K8849,2022-02-06 21:00:00,51,35,50,52,50,-9999,0
849,后郭,三门县,海游街道,29.08805,121.3217,K8850,2022-02-06 21:00:00,37,46,43,46,43,-9999,0
850,三门岛,三门县,浦坝港镇,28.96472,121.7919,K8860,2022-02-06 21:00:00,34,78,70,71,70,30000,0
851,五子岛,三门县,浦坝港镇,29.00556,121.7608,K8862,2022-02-06 21:00:00,33,47,68,69,68,30000,0
852,石门坑,三门县,亭旁镇,29.005,121.3572,K8866,2022-02-06 21:00:00,-9999,-9999,48,54,48,-9999,0
853,下吴村,三门县,亭旁镇,29.01889,121.3144,K8867,2022-02-06 21:00:00,-9999,-9999,56,59,56,-9999,0
854,银山村,三门县,花桥镇,28.93361,121.4381,K8868,2022-02-06 21:00:00,-9999,-9999,38,41,38,-9999,0
855,外俞村,三门县,海游街道,29.08639,121.3936,K8869,2022-02-06 21:00:00,-9999,-9999,64,66,64,-9999,0
856,善见村,三门县,横渡镇,28.99195,121.4514,K8870,2022-02-06 21:00:00,-9999,-9999,59,63,59,-9999,0
857,樟树下,三门县,珠岙镇,29.05305,121.2931,K8871,2022-02-06 21:00:00,-9999,-9999,58,64,57,-9999,0
858,五峙山,三门县,浦坝港镇,28.91111,121.7244,K8872,2022-02-06 21:00:00,12,75,71,72,70,30000,0
859,五峙山B,三门县,浦坝港镇,28.91111,121.7244,K8873,2022-02-06 21:00:00,14,79,71,72,70,-9999,0
860,竹墩村,三门县,珠岙镇,29.02417,121.2556,K8874,2022-02-06 21:00:00,35,50,34,38,34,-9999,0
861,邵下村,三门县,亭旁镇,29.06944,121.3683,K8875,2022-02-06 21:00:00,62,51,52,55,52,-9999,0
862,王家村,三门县,海润街道,29.13139,121.4242,K8876,2022-02-06 21:00:00,355,23,50,50,49,-9999,0
863,珠港村,三门县,健跳镇,29.07028,121.6053,K8877,2022-02-06 21:00:00,63,43,62,66,62,-9999,0
864,芝岙村,三门县,花桥镇,28.92694,121.5261,K8878,2022-02-06 21:00:00,357,37,65,68,65,-9999,0
865,长林村,三门县,横渡镇,29.01417,121.4353,K8879,2022-02-06 21:00:00,-9999,-9999,52,56,52,-9999,0
866,里陈坑,三门县,浦坝港镇,28.97528,121.6486,K8880,2022-02-06 21:00:00,-9999,-9999,63,64,61,-9999,0
867,大岙山,三门县,海润街道,29.08055,121.4425,K8881,2022-02-06 21:00:00,-9999,-9999,52,57,52,-9999,0
868,白塔,仙居县,白塔镇,28.72556,120.5786,K8901,2022-02-06 21:00:00,220,23,44,51,44,-9999,1
869,横溪,仙居县,横溪镇,28.72889,120.4772,K8902,2022-02-06 21:00:00,129,12,40,47,40,-9999,3
870,朱溪,仙居县,朱溪镇,28.71806,120.7936,K8903,2022-02-06 21:00:00,348,30,46,52,46,-9999,1
871,广度,仙居县,广度乡,28.94639,120.7519,K8904,2022-02-06 21:00:00,198,11,7,11,7,-9999,3
872,六亩田,仙居县,上张乡,28.62139,120.7147,K8905,2022-02-06 21:00:00,178,19,17,20,16,-9999,1
873,双庙,仙居县,双庙乡,28.78889,120.8575,K8906,2022-02-06 21:00:00,-9999,-9999,50,56,50,-9999,0
874,大陈村,仙居县,埠头镇,28.85028,120.5117,K8907,2022-02-06 21:00:00,65,12,25,31,25,-9999,3
875,柯思,仙居县,田市镇,28.66389,120.6708,K8908,2022-02-06 21:00:00,0,0,39,46,39,-9999,2
876,溪心,仙居县,官路镇,28.895,120.6228,K8909,2022-02-06 21:00:00,-9999,-9999,39,50,39,-9999,3
877,雅溪,仙居县,湫山乡,28.69833,120.3353,K8910,2022-02-06 21:00:00,0,0,28,33,28,-9999,6
878,淡竹,仙居县,淡竹乡,28.67194,120.5706,K8911,2022-02-06 21:00:00,201,12,39,47,39,-9999,4
879,溪港,仙居县,溪港乡,28.57361,120.3961,K8912,2022-02-06 21:00:00,0,1,31,38,31,-9999,5
880,溪口,仙居县,横溪镇,28.645,120.4797,K8913,2022-02-06 21:00:00,78,7,34,36,34,-9999,4
881,苗辽,仙居县,上张乡,28.61611,120.7961,K8914,2022-02-06 21:00:00,-9999,-9999,6,8,6,-9999,0
882,步路,仙居县,步路乡,28.77722,120.7242,K8915,2022-02-06 21:00:00,-9999,-9999,49,57,49,-9999,1
883,安岭,仙居县,安岭乡,28.56083,120.3333,K8916,2022-02-06 21:00:00,86,30,12,13,10,-9999,5
884,下各,仙居县,下各镇,28.83972,120.8778,K8917,2022-02-06 21:00:00,200,22,53,59,53,-9999,1
885,皤滩,仙居县,皤滩镇,28.72583,120.5208,K8918,2022-02-06 21:00:00,0,0,37,43,37,-9999,5
886,对山,仙居县,大战乡,28.76056,120.775,K8919,2022-02-06 21:00:00,164,35,21,27,21,-9999,0
887,山岙,仙居县,横溪镇,28.77944,120.4283,K8920,2022-02-06 21:00:00,278,3,6,13,6,-9999,5
888,蓄能站,仙居县,湫山乡,28.63111,120.4019,K8921,2022-02-06 21:00:00,0,0,6,12,5,-9999,4
889,工业园区,仙居县,福应街道,28.87944,120.8328,K8922,2022-02-06 21:00:00,64,26,59,66,59,-9999,0
890,俞坑,仙居县,淡竹乡,28.54944,120.5878,K8923,2022-02-06 21:00:00,213,24,21,23,21,-9999,2
891,谷坦,仙居县,官路镇,28.87833,120.6025,K8924,2022-02-06 21:00:00,173,24,16,22,15,-9999,3
892,南峰,仙居县,南峰街道,28.825,120.7467,K8925,2022-02-06 21:00:00,128,10,50,59,50,-9999,1
893,湫山,仙居县,湫山乡,28.69833,120.4433,K8926,2022-02-06 21:00:00,0,0,43,46,43,-9999,6
894,四小,仙居县,安洲街道,28.87278,120.7306,K8927,2022-02-06 21:00:00,230,17,56,66,56,-9999,1
895,永狮,仙居县,官路镇,28.81194,120.6328,K8928,2022-02-06 21:00:00,0,0,45,52,45,-9999,1
896,茶溪,仙居县,白塔镇,28.775,120.5811,K8929,2022-02-06 21:00:00,314,20,42,56,42,6402,1
897,大陈村雪深,仙居县,埠头镇,28.85028,120.5117,K8931,2022-02-06 21:00:00,-9999,-9999,-9999,-9999,-9999,-9999,0
898,山岙雪深,仙居县,横溪镇,28.77944,120.4283,K8932,2022-02-06 21:00:00,-9999,-9999,-9999,-9999,-9999,-9999,0
899,横溪雪深,仙居县,横溪镇,28.73333,120.4833,K8933,2022-02-06 21:00:00,-9999,-9999,-9999,-9999,-9999,-9999,0
900,朱溪雪深,仙居县,朱溪镇,28.71806,120.7936,K8934,2022-02-06 21:00:00,-9999,-9999,-9999,-9999,-9999,-9999,0
901,青尖山雪深,仙居县,安洲街道,28.91639,120.7275,K8936,2022-02-06 21:00:00,-9999,-9999,-9999,-9999,-9999,-9999,0
902,朱坑里,仙居县,淡竹乡,28.60417,120.6542,K8942,2022-02-06 21:00:00,90,16,23,30,23,-9999,2
903,吴山后,仙居县,淡竹乡,28.59222,120.5281,K8943,2022-02-06 21:00:00,0,0,13,17,12,-9999,3
904,青尖山,仙居县,福应街道,28.91639,120.7275,K8945,2022-02-06 21:00:00,84,48,-5,-4,-5,-9999,0
905,公盂,仙居县,田市镇,28.63917,120.6425,K8946,2022-02-06 21:00:00,87,24,6,9,6,-9999,4
906,垟庄,仙居县,横溪镇,28.78306,120.5061,K8947,2022-02-06 21:00:00,43,20,44,50,44,-9999,3
907,上蓄能,仙居县,湫山乡,28.64528,120.4169,K8948,2022-02-06 21:00:00,197,47,6,12,4,-9999,4
908,天顶茶场,仙居县,上张乡,28.63583,120.8078,K8949,2022-02-06 21:00:00,1,110,-8,-6,-8,-9999,0
909,西陆,仙居县,下各镇,28.82278,120.8483,K8950,2022-02-06 21:00:00,107,15,46,53,46,-9999,0
910,苍岭西,仙居县,横溪镇,28.76278,120.3233,K8951,2022-02-06 21:00:00,142,38,25,39,25,5753,2
911,西炉村,仙居县,步路乡,28.79694,120.6969,K8952,2022-02-06 21:00:00,0,1,51,58,51,-9999,1
912,芭蕉坑,仙居县,湫山乡,28.65944,120.3575,K8970,2022-02-06 21:00:00,206,10,29,35,29,-9999,5
913,银地村,仙居县,横溪镇,28.81333,120.475,K8971,2022-02-06 21:00:00,175,16,5,12,4,-9999,3
914,牛脚村,仙居县,湫山乡,28.62861,120.4378,K8972,2022-02-06 21:00:00,178,13,12,16,12,-9999,0
915,船山村,仙居县,南峰街道,28.81833,120.7011,K8973,2022-02-06 21:00:00,328,11,46,53,46,-9999,0
916,苍岭东,仙居县,横溪镇,28.75222,120.4072,K8974,2022-02-06 21:00:00,355,19,31,36,31,-9999,4
917,路口,仙居县,安洲街道,28.89278,120.6878,K8975,2022-02-06 21:00:00,51,0,11,18,11,-9999,2
918,景星岩,仙居县,白塔镇,28.7125,120.6536,K8976,2022-02-06 21:00:00,186,20,31,40,30,-9999,2
919,厚仁村,仙居县,白塔镇,28.77695,120.6022,K8977,2022-02-06 21:00:00,158,13,48,58,48,-9999,2
920,双峰隧道南,仙居县,埠头镇,28.87139,120.4986,K8978,2022-02-06 21:00:00,0,22,22,31,22,-9999,2
921,括苍隧道北,仙居县,田市镇,28.63417,120.6733,K8979,2022-02-06 21:00:00,281,10,37,42,37,-9999,2
922,神仙居,仙居县,淡竹乡,28.67945,120.6036,K8980,2022-02-06 21:00:00,147,45,-4,-4,-5,-9999,1
923,三角地,仙居县,福应街道,28.9275,120.7975,K8981,2022-02-06 21:00:00,138,56,5,10,5,-9999,0
924,过朗,仙居县,大战乡,28.82222,120.8103,K8983,2022-02-06 21:00:00,0,0,43,54,43,-9999,1
925,祝家辽,仙居县,广度乡,28.96445,120.6733,K8984,2022-02-06 21:00:00,136,28,-6,-6,-7,-9999,0
926,下岸水库,仙居县,溪港乡,28.60528,120.4003,K8985,2022-02-06 21:00:00,296,20,31,33,29,-9999,3
927,山皇堂,仙居县,埠头镇,28.80445,120.545,K8986,2022-02-06 21:00:00,-9999,-9999,29,37,29,-9999,2
928,金坑口,仙居县,皤滩乡,28.66444,120.5092,K8987,2022-02-06 21:00:00,-9999,-9999,32,35,32,-9999,3
929,白岭脚,仙居县,官路镇,28.84361,120.6486,K8988,2022-02-06 21:00:00,-9999,-9999,43,53,43,-9999,0
930,赤龙,椒江区,白云街道,28.65472,121.4189,K8001,2022-02-06 22:00:00,68,38,67,70,67,-9999,0
931,绿心,椒江区,葭沚街道,28.638986,121.3521,K8003,2022-02-06 22:00:00,10,28,43,48,43,-9999,0
932,绿心雪深,椒江区,绿心委,28.63889,121.3522,K8031,2022-02-06 22:00:00,-9999,-9999,-9999,-9999,-9999,-9999,0
933,东方红,椒江区,海门街道,28.67805,121.4467,K8101,2022-02-06 22:00:00,68,28,67,69,67,-9999,0
934,涛江闸,椒江区,前所街道,28.69667,121.4897,K8103,2022-02-06 22:00:00,41,32,67,70,67,-9999,0
935,马峙,椒江区,章安街道,28.75389,121.4047,K8104,2022-02-06 22:00:00,327,30,63,66,63,-9999,0
936,大桥,椒江区,章安街道,28.70806,121.3967,K8106,2022-02-06 22:00:00,13,24,66,71,66,8865,0
937,下陈,椒江区,下陈街道,28.59306,121.4592,K8107,2022-02-06 22:00:00,27,37,66,69,66,-9999,0
938,柏树里,椒江区,章安街道,28.73028,121.4508,K8108,2022-02-06 22:00:00,4,16,64,67,64,-9999,0
939,新佳果,椒江区,三甲街道,28.61944,121.5092,K8109,2022-02-06 22:00:00,62,48,67,69,66,-9999,0
940,上大陈,椒江区,大陈镇,28.49639,121.9056,K8110,2022-02-06 22:00:00,13,108,74,74,72,-9999,0
941,二桥,椒江区,前所街道,28.69444,121.4744,K8111,2022-02-06 22:00:00,27,40,62,66,62,16498,0
942,岳头村,椒江区,海门街道,28.66417,121.4556,K8112,2022-02-06 22:00:00,89,28,68,71,68,-9999,0
943,污水厂,椒江区,海门街道,28.64,121.5019,K8113,2022-02-06 22:00:00,23,31,67,69,67,-9999,0
944,雷达站,椒江区,三甲街道,28.61722,121.522441,K8114,2022-02-06 22:00:00,42,24,68,70,68,15480,0
945,挡港桥,椒江区,洪家街道,28.59028,121.3997,K8115,2022-02-06 22:00:00,13,27,66,69,66,-9999,0
946,大陈码头,椒江区,大陈镇,28.45333,121.8894,K8117,2022-02-06 22:00:00,-9999,-9999,-9999,-9999,-9999,28882,0
947,乌石,椒江区,葭沚街道,28.68333,121.375,K8118,2022-02-06 22:00:00,42,23,66,69,66,-9999,0
948,台州湾大桥,椒江区,海门街道,28.67805,121.5119,K8120,2022-02-06 22:00:00,52,53,64,66,64,-9999,0
949,柑橘良种场,椒江区,章安街道,28.73611,121.3692,K8121,2022-02-06 22:00:00,44,41,53,57,53,-9999,0
950,烟草中心,椒江区,三甲街道,28.59,121.5361,K8122,2022-02-06 22:00:00,20,42,68,70,68,-9999,0
951,虾捕,椒江区,大陈镇,28.50553,121.8901,K8123,2022-02-06 22:00:00,60,118,61,61,61,-9999,0
952,洪家二中,椒江区,i洪家街道,28.60372,121.4144,K8124,2022-02-06 22:00:00,1,19,67,71,67,-9999,0
953,上大陈码头,椒江区,大陈镇,28.47861,121.8731,K8125,2022-02-06 22:00:00,-9999,-9999,-9999,-9999,-9999,24975,0
954,一江码头,椒江区,大陈镇,28.58675,121.81045,K8126,2022-02-06 22:00:00,-9999,-9999,-9999,-9999,-9999,30000,0
955,江北药业,椒江区,章安街道,28.70611,121.3672,K8127,2022-02-06 22:00:00,38,21,64,68,64,-9999,0
956,李宅村,椒江区,章安街道,28.76,121.3928,K8128,2022-02-06 22:00:00,349,27,62,65,61,-9999,0
957,新民小学,椒江区,前所街道,28.70583,121.4325,K8191,2022-02-06 22:00:00,62,11,68,71,68,-9999,0
958,黄岩局,黄岩区,东城街道,28.6525,121.28,K8201,2022-02-06 22:00:00,15,16,65,68,65,26340,0
959,宁溪,黄岩区,宁溪镇,28.59167,120.9753,K8202,2022-02-06 22:00:00,237,9,42,47,42,-9999,2
960,沙埠,黄岩区,沙埠镇,28.54806,121.1744,K8203,2022-02-06 22:00:00,229,15,54,58,54,-9999,0
961,长潭,黄岩区,北洋镇,28.61028,121.0614,K8204,2022-02-06 22:00:00,276,27,52,57,52,-9999,0
962,头陀,黄岩区,头陀镇,28.67417,121.1369,K8205,2022-02-06 22:00:00,315,9,52,56,52,10333,0
963,富山,黄岩区,富山乡,28.53583,120.9131,K8206,2022-02-06 22:00:00,16,25,2,4,1,-9999,3
964,白石,黄岩区,屿头乡,28.67444,120.9375,K8207,2022-02-06 22:00:00,71,44,-3,-1,-3,-9999,1
965,屿头,黄岩区,屿头乡,28.65211,121.01093,K8208,2022-02-06 22:00:00,267,10,41,45,41,-9999,1
966,上郑,黄岩区,上郑乡,28.60583,120.8744,K8209,2022-02-06 22:00:00,292,9,28,31,28,-9999,2
967,上垟,黄岩区,上垟乡,28.515366,121.008268,K8210,2022-02-06 22:00:00,315,6,44,46,44,7634,2
968,江口,黄岩区,江口街道,28.6903,121.3275,K8212,2022-02-06 22:00:00,56,19,68,70,68,-9999,0
969,院桥,黄岩区,院桥镇,28.54972,121.2781,K8213,2022-02-06 22:00:00,319,18,62,64,62,-9999,0
970,高桥,黄岩区,高桥街道,28.58444,121.2314,K8214,2022-02-06 22:00:00,276,15,54,61,54,-9999,0
971,新前,黄岩区,新前街道,28.68139,121.2067,K8215,2022-02-06 22:00:00,297,16,57,62,57,-9999,0
972,茅畲,黄岩区,茅畲乡,28.595,121.1314,K8216,2022-02-06 22:00:00,130,7,49,53,49,-9999,0
973,澄江,黄岩区,澄江街道,28.63222,121.1736,K8217,2022-02-06 22:00:00,239,19,58,62,58,7991,0
974,科技学院,黄岩区,东城街道,28.66945,121.2539,K8218,2022-02-06 22:00:00,96,9,64,68,64,-9999,0
975,铅锌矿,黄岩区,上郑乡,28.5981,120.92483,K8219,2022-02-06 22:00:00,-9999,-9999,39,42,39,-9999,2
976,北洋,黄岩区,北洋镇,28.63056,121.0978,K8220,2022-02-06 22:00:00,183,10,52,55,52,-9999,1
977,平田,黄岩区,平田乡,28.53806,121.0739,K8221,2022-02-06 22:00:00,31,6,23,27,23,-9999,1
978,大寺基,黄岩区,上郑乡,28.58417,120.7997,K8222,2022-02-06 22:00:00,99,109,-24,-21,-24,-9999,0
979,牌门,黄岩区,宁溪镇,28.53722,120.9522,K8225,2022-02-06 22:00:00,167,6,41,44,41,-9999,3
980,委羽山,黄岩区,西城街道,28.62472,121.2397,K8226,2022-02-06 22:00:00,301,13,62,66,62,25923,0
981,十里铺,黄岩区,南城街道,28.6125,121.2672,K8227,2022-02-06 22:00:00,0,0,55,60,55,-9999,0
982,江心屿,黄岩区,江口街道,28.70555,121.3256,K8228,2022-02-06 22:00:00,0,0,64,67,64,-9999,0
983,白鹭湾,黄岩区,宁溪镇,28.61222,120.9992,K8229,2022-02-06 22:00:00,21,8,47,50,47,-9999,1
984,黄毛山,黄岩区,平田乡,28.57528,121.0769,K8230,2022-02-06 22:00:00,74,47,4,6,4,-9999,1
985,白石雪深,黄岩区,屿头乡,28.67444,120.9375,K8231,2022-02-06 22:00:00,-9999,-9999,-9999,-9999,-9999,-9999,0
986,柑橘所雪深,黄岩区,头陀镇,28.64278,121.1564,K8233,2022-02-06 22:00:00,-9999,-9999,-9999,-9999,-9999,-9999,0
987,城区雪深,黄岩区,北城街道,28.66945,121.2539,K8234,2022-02-06 22:00:00,-9999,-9999,-9999,-9999,-9999,-9999,0
988,大寺基雪深,黄岩区,上郑乡,28.58417,120.7997,K8236,2022-02-06 22:00:00,-9999,-9999,-9999,-9999,-9999,-9999,0
989,东城小学,黄岩区,东城街道,28.65111,121.3006,K8240,2022-02-06 22:00:00,73,16,64,68,64,-9999,0
990,王林,黄岩区,北城街道,28.685,121.2867,K8241,2022-02-06 22:00:00,-9999,-9999,67,72,67,-9999,0
991,长滩,黄岩区,屿头乡,28.66028,120.9892,K8242,2022-02-06 22:00:00,-9999,-9999,41,44,41,-9999,1
992,岭根,黄岩区,宁溪镇,28.54722,120.9364,K8243,2022-02-06 22:00:00,-9999,-9999,41,43,41,-9999,3
993,下抱水库,黄岩区,新前街道,28.70972,121.2208,K8244,2022-02-06 22:00:00,36,13,47,50,47,-9999,0
994,南正顶,黄岩区,富山乡,28.51028,120.8578,K8245,2022-02-06 22:00:00,-9999,-9999,-11,-10,-11,-9999,0
995,蒋东岙,黄岩区,上郑乡,28.6125,120.9275,K8246,2022-02-06 22:00:00,-9999,-9999,29,31,29,-9999,0
996,五尖山,黄岩区,北洋镇,28.66611,121.0386,K8247,2022-02-06 22:00:00,-9999,-9999,24,26,23,-9999,0
997,元同溪闸,黄岩区,头陀镇,28.62417,121.1458,K8248,2022-02-06 22:00:00,215,10,56,62,56,-9999,0
998,黄土岭,黄岩区,北城街道,28.68306,121.2394,K8249,2022-02-06 22:00:00,322,15,60,67,60,-9999,0
999,联丰,黄岩区,北洋镇,28.65278,121.0689,K8250,2022-02-06 22:00:00,-9999,-9999,47,53,47,-9999,0
1000,抱料,黄岩区,上郑乡,28.55972,120.8456,K8256,2022-02-06 22:00:00,-9999,-9999,16,16,15,-9999,2
1001,决要,黄岩区,富山乡,28.5325,120.8467,K8257,2022-02-06 22:00:00,-9999,-9999,19,21,19,-9999,5
1002,福利,黄岩区,宁溪镇,28.6075,120.9708,K8258,2022-02-06 22:00:00,352,12,45,49,45,-9999,0
1003,布袋坑,黄岩区,屿头乡,28.70056,120.9442,K8259,2022-02-06 22:00:00,174,25,10,11,10,-9999,0
1004,东亚山庄,黄岩区,上郑乡,28.59833,120.82,K8270,2022-02-06 22:00:00,24,0,-22,-20,-22,-9999,0
1005,外金,黄岩区,富山乡,28.50778,120.8914,K8271,2022-02-06 22:00:00,299,34,18,20,14,-9999,3
1006,后岙,黄岩区,屿头乡,28.66306,120.9097,K8273,2022-02-06 22:00:00,70,29,11,15,11,-9999,2
1007,前思岙,黄岩区,上垟乡,28.48611,121.0247,K8274,2022-02-06 22:00:00,0,1,38,40,38,-9999,2
1008,兴安,黄岩区,屿头乡,28.65028,120.9594,K8275,2022-02-06 22:00:00,240,9,41,43,41,-9999,0
1009,董岙,黄岩区,上垟乡,28.56167,121.0181,K8276,2022-02-06 22:00:00,234,22,49,54,45,-9999,0
1010,宁溪B,黄岩区,宁溪镇,28.58167,120.9753,K8282,2022-02-06 22:00:00,264,10,39,43,38,-9999,2
1011,柑橘所,黄岩区,头陀镇,28.64278,121.1564,K8283,2022-02-06 22:00:00,297,14,55,61,54,-9999,0
1012,路桥,路桥区,路桥街道,28.57528,121.3503,K8301,2022-02-06 22:00:00,14,22,68,73,68,-9999,0
1013,横街,路桥区,横街镇,28.52778,121.4456,K8302,2022-02-06 22:00:00,17,34,65,67,65,-9999,0
1014,金清,路桥区,金清镇,28.51583,121.4972,K8303,2022-02-06 22:00:00,30,45,69,71,69,17422,0
1015,白果,路桥区,金清镇,28.48386,121.62174,K8304,2022-02-06 22:00:00,25,97,62,62,62,-9999,0
1016,黄琅,路桥区,金清镇,28.52611,121.5967,K8305,2022-02-06 22:00:00,11,78,71,72,71,-9999,0
1017,桐屿,路桥区,桐屿街道,28.58556,121.3344,K8306,2022-02-06 22:00:00,349,18,68,72,68,-9999,0
1018,机场,路桥区,路南街道,28.55528,121.4222,K8307,2022-02-06 22:00:00,35,32,66,70,66,-9999,0
1019,新桥,路桥区,新桥镇,28.51194,121.4036,K8308,2022-02-06 22:00:00,9,28,66,67,66,-9999,0
1020,蓬街,路桥区,蓬街镇,28.55445,121.4694,K8309,2022-02-06 22:00:00,0,1,69,71,69,-9999,0
1021,峰江,路桥区,峰江街道,28.54861,121.3681,K8310,2022-02-06 22:00:00,12,30,64,68,64,-9999,0
1022,水厂,路桥区,螺洋街道,28.56083,121.33,K8311,2022-02-06 22:00:00,18,18,69,71,68,-9999,0
1023,农垦场,路桥区,金清镇,28.50805,121.5872,K8312,2022-02-06 22:00:00,23,70,71,72,71,-9999,0
1024,启明村,路桥区,蓬街镇,28.56807,121.51892,K8313,2022-02-06 22:00:00,53,46,68,71,68,-9999,0
1025,三山,路桥区, 金清镇,28.56139,121.5944,K8315,2022-02-06 22:00:00,35,94,65,66,65,30000,0
1026,鹁鸪嘴,路桥区, 金清镇,28.55056,121.6422,K8316,2022-02-06 22:00:00,34,94,70,71,70,28429,0
1027,凉溪,路桥区,桐屿街道,28.61778,121.3067,K8317,2022-02-06 22:00:00,354,15,56,60,56,-9999,0
1028,东风村,路桥区,螺洋街道,28.56417,121.3083,K8318,2022-02-06 22:00:00,312,14,63,65,63,11129,0
1029,湖屿岛,路桥区, 金清镇,28.45833,121.6653,K8320,2022-02-06 22:00:00,16,109,73,73,72,30000,0
1030,保全小学,路桥区,峰江街道,28.52889,121.3761,K8321,2022-02-06 22:00:00,333,22,67,69,67,-9999,0
1031,路桥高速,路桥区,金清镇,28.55556,121.5392,K8322,2022-02-06 22:00:00,39,45,69,71,69,18523,0
1032,横街小学,路桥区,横街镇,28.53583,121.4328,K8323,2022-02-06 22:00:00,21,20,67,68,67,-9999,0
1033,飞龙湖,路桥区,桐屿街道,28.60444,121.3358,K8324,2022-02-06 22:00:00,5,19,64,67,64,-9999,0
1034,联盟闸,路桥区,金清镇,28.52083,121.5478,K8325,2022-02-06 22:00:00,38,59,69,71,69,-9999,0
1035,龙头王村,路桥区,路桥街道,28.58139,121.3919,K8326,2022-02-06 22:00:00,-9999,-9999,65,70,65,-9999,0
1036,下陶村,路桥区,峰江街道,28.53639,121.3953,K8327,2022-02-06 22:00:00,45,26,67,70,67,-9999,0
1037,会展中心,路桥区,路北街道,28.5975,121.3692,K8328,2022-02-06 22:00:00,-9999,-9999,70,73,70,-9999,0
1038,明珠学校,路桥区,金清镇,28.52,121.5147,K8329,2022-02-06 22:00:00,22,43,70,71,70,-9999,0
1039,北大附中,路桥区,桐屿街道,28.60139,121.3047,K8330,2022-02-06 22:00:00,350,14,65,69,65,-9999,0
1040,上寺前,路桥区,螺洋街道,28.53889,121.3331,K8340,2022-02-06 22:00:00,-9999,-9999,59,63,59,-9999,0
1041,九琅山,路桥区,横街镇,28.51472,121.4469,K8341,2022-02-06 22:00:00,271,29,66,68,65,-9999,0
1042,石桥头,温岭市,石桥头镇,28.34945,121.4606,K8401,2022-02-06 22:00:00,345,55,68,69,68,-9999,0
1043,黄茅山,温岭市,泽国镇,28.52972,121.3078,K8402,2022-02-06 22:00:00,0,1,46,50,46,-9999,0
1044,大溪,温岭市,大溪镇,28.49111,121.2411,K8403,2022-02-06 22:00:00,273,17,63,65,63,-9999,0
1045,松门,温岭市,松门镇,28.37111,121.5664,K8404,2022-02-06 22:00:00,347,50,71,72,71,-9999,0
1046,坞根,温岭市,坞根镇,28.32472,121.2611,K8405,2022-02-06 22:00:00,356,31,64,67,64,-9999,0
1047,横峰,温岭市,横峰街道,28.4475,121.3258,K8406,2022-02-06 22:00:00,49,23,68,69,68,-9999,0
1048,石塘渔港,温岭市,石塘镇,28.24639,121.6039,K8407,2022-02-06 22:00:00,38,105,75,75,74,29859,0
1049,新河,温岭市,新河镇,28.47806,121.4594,K8408,2022-02-06 22:00:00,45,24,65,67,65,-9999,0
1050,东海塘,温岭市,箬横镇,28.42222,121.6081,K8409,2022-02-06 22:00:00,32,80,73,74,73,30000,0
1051,岙环,温岭市,城南镇,28.28611,121.3994,K8410,2022-02-06 22:00:00,56,45,65,66,65,-9999,0
1052,温峤,温岭市,温峤镇,28.38389,121.3003,K8411,2022-02-06 22:00:00,30,28,64,65,64,-9999,0
1053,箬横,温岭市,箬横镇,28.39889,121.5228,K8412,2022-02-06 22:00:00,3,31,72,73,72,-9999,0
1054,滨海,温岭市,滨海镇,28.45056,121.5589,K8413,2022-02-06 22:00:00,50,57,67,69,67,28369,0
1055,太湖山,温岭市,大溪镇,28.49917,121.2019,K8414,2022-02-06 22:00:00,30,39,29,33,29,-9999,0
1056,九洞门,温岭市,松门镇,28.4125,121.6617,K8415,2022-02-06 22:00:00,41,113,71,72,71,-9999,0
1057,花芯,温岭市,箬横镇,28.41556,121.4511,K8416,2022-02-06 22:00:00,14,43,53,55,52,-9999,0
1058,方山,温岭市,大溪镇,28.42056,121.2528,K8417,2022-02-06 22:00:00,40,61,23,27,23,-9999,0
1059,实践基地,温岭市,松门镇,28.32583,121.6189,K8419,2022-02-06 22:00:00,51,72,72,73,71,-9999,0
1060,岭脚村,温岭市,温峤镇,28.36194,121.2825,K8420,2022-02-06 22:00:00,51,50,57,61,57,-9999,0
1061,山后村,温岭市,城南镇,28.32944,121.3311,K8421,2022-02-06 22:00:00,23,69,64,66,64,-9999,0
1062,火车站,温岭市,大溪镇,28.48222,121.3236,K8422,2022-02-06 22:00:00,69,28,69,71,69,-9999,0
1063,城东,温岭市,城东街道,28.41195,121.3767,K8423,2022-02-06 22:00:00,317,21,68,70,68,-9999,0
1064,城北,温岭市,城北街道,28.45722,121.3997,K8424,2022-02-06 22:00:00,45,47,63,65,62,-9999,0
1065,三蒜,温岭市,石塘镇,28.23111,121.6356,K8425,2022-02-06 22:00:00,31,111,70,71,68,30000,0
1066,粮食功能区,温岭市,箬横镇,28.41111,121.5644,K8426,2022-02-06 22:00:00,347,56,69,71,69,-9999,0
1067,大溪高速,温岭市,大溪镇,28.46889,121.2619,K8427,2022-02-06 22:00:00,0,0,63,66,63,12610,0
1068,泽国,温岭市,泽国镇,28.48944,121.3794,K8429,2022-02-06 22:00:00,69,22,63,64,63,-9999,0
1069,城西,温岭市,城西街道,28.39,121.3681,K8430,2022-02-06 22:00:00,8,23,67,68,67,-9999,0
1070,方山雪深,温岭市,大溪镇,28.42056,121.2428,K8431,2022-02-06 22:00:00,-9999,-9999,-9999,-9999,-9999,-9999,0
1071,仰天湖雪深,温岭市,大溪镇,28.49917,121.2019,K8432,2022-02-06 22:00:00,-9999,-9999,-9999,-9999,-9999,-9999,0
1072,泽国二小,温岭市,泽国镇,28.49694,121.3361,K8441,2022-02-06 22:00:00,41,26,66,69,66,-9999,0
1073,长屿,温岭市,新河镇,28.43611,121.4358,K8442,2022-02-06 22:00:00,96,20,56,57,56,-9999,0
1074,高桥小学,温岭市,新河镇,28.48944,121.4331,K8443,2022-02-06 22:00:00,20,36,68,70,68,-9999,0
1075,东浦,温岭市,箬横镇,28.345,121.4997,K8444,2022-02-06 22:00:00,17,49,68,70,68,-9999,0
1076,北港,温岭市,松门镇,28.43167,121.6581,K8445,2022-02-06 22:00:00,40,95,69,70,69,-9999,0
1077,城南小学,温岭市,城南镇,28.325,121.4075,K8446,2022-02-06 22:00:00,13,70,67,68,67,-9999,0
1078,温岭南,温岭市,城南镇,28.32778,121.4594,K8447,2022-02-06 22:00:00,23,69,69,70,69,24296,0
1079,隔海岛,温岭市,石塘镇,28.30389,121.6469,K8448,2022-02-06 22:00:00,56,101,76,77,75,-9999,0
1080,潘郎小学,温岭市,大溪镇,28.45389,121.3058,K8460,2022-02-06 22:00:00,355,18,67,69,67,-9999,0
1081,犁头咀,温岭市,城南镇,28.26556,121.4369,K8461,2022-02-06 22:00:00,26,90,68,68,67,-9999,0
1082,伍佰屿,温岭市,滨海镇,28.47694,121.6092,K8462,2022-02-06 22:00:00,31,83,73,74,73,-9999,0
1083,温岭中学,温岭市,太平街道,28.37472,121.3969,K8463,2022-02-06 22:00:00,319,19,64,67,64,-9999,0
1084,滨海中学,温岭市,滨海镇,28.46833,121.5203,K8464,2022-02-06 22:00:00,32,48,69,70,69,-9999,0
1085,长屿小学,温岭市,新河镇,28.45111,121.4406,K8465,2022-02-06 22:00:00,17,23,67,69,67,-9999,0
1086,青屿校区,温岭市,温峤镇,28.36361,121.2439,K8466,2022-02-06 22:00:00,45,54,61,64,61,23730,0
1087,毛竹下,温岭市,大溪镇,28.43833,121.2553,K8467,2022-02-06 22:00:00,-9999,-9999,54,57,54,-9999,0
1088,上洋工业区,温岭市,大溪镇,28.43278,121.2506,K8468,2022-02-06 22:00:00,-9999,-9999,57,60,57,-9999,0
1089,双溪村,温岭市,大溪镇,28.45528,121.2419,K8469,2022-02-06 22:00:00,-9999,-9999,57,60,57,-9999,0
1090,翁岙村,温岭市,大溪镇,28.51611,121.2917,K8470,2022-02-06 22:00:00,-9999,-9999,59,62,59,-9999,0
1091,金路村,温岭市,新河镇,28.45861,121.4111,K8471,2022-02-06 22:00:00,-9999,-9999,67,69,67,-9999,0
1092,楼岙村,温岭市,新河镇,28.44889,121.4231,K8472,2022-02-06 22:00:00,-9999,-9999,66,68,66,-9999,0
1093,屿头村,温岭市,新河镇,28.44667,121.4375,K8473,2022-02-06 22:00:00,-9999,-9999,68,70,68,-9999,0
1094,长屿村,温岭市,新河镇,28.44667,121.4456,K8474,2022-02-06 22:00:00,-9999,-9999,62,66,62,-9999,0
1095,下呈村,温岭市,坞根镇,28.30278,121.2569,K8475,2022-02-06 22:00:00,-9999,-9999,64,67,64,-9999,0
1096,东门村,温岭市,坞根镇,28.33389,121.2178,K8476,2022-02-06 22:00:00,-9999,-9999,66,69,66,-9999,0
1097,紫荆校区,温岭市,箬横镇,28.405,121.6108,K8477,2022-02-06 22:00:00,286,67,72,73,72,-9999,0
1098,清港,玉环市,清港镇,28.25694,121.2867,K8501,2022-02-06 22:00:00,67,38,68,69,68,-9999,0
1099,干江,玉环市,干江镇,28.16639,121.3717,K8502,2022-02-06 22:00:00,45,84,56,56,52,26600,0
1100,沙门,玉环市,沙门镇,28.24389,121.3803,K8503,2022-02-06 22:00:00,51,75,69,69,68,-9999,0
1101,海山,玉环市,海山乡,28.21,121.1575,K8504,2022-02-06 22:00:00,318,48,66,69,66,30000,1
1102,玉城,玉环市,玉城街道,28.12556,121.2369,K8505,2022-02-06 22:00:00,281,20,64,65,64,-9999,0
1103,大鹿岛,玉环市,鸡山乡,28.09222,121.4039,K8506,2022-02-06 22:00:00,39,94,71,71,69,-9999,0
1104,鲜迭,玉环市,大麦屿街道,28.09167,121.2042,K8507,2022-02-06 22:00:00,359,59,40,40,38,-9999,0
1105,花岩浦,玉环市,龙溪乡,28.19611,121.3092,K8510,2022-02-06 22:00:00,19,44,60,60,58,20591,0
1106,芦浦,玉环市,芦浦镇,28.19833,121.2414,K8511,2022-02-06 22:00:00,16,40,50,51,49,-9999,0
1107,楚门,玉环市,楚门镇,28.21694,121.3014,K8512,2022-02-06 22:00:00,350,40,68,69,67,-9999,0
1108,鸡山,玉环市,鸡山乡,28.10611,121.36417,K8513,2022-02-06 22:00:00,21,93,65,65,62,30000,0
1109,大麦屿,玉环市,大麦屿街道,28.10306,121.1358,K8517,2022-02-06 22:00:00,40,62,64,65,64,-9999,0
1110,龙溪樱桃 ,玉环市,龙溪乡,28.22667,121.3333,K8518,2022-02-06 22:00:00,357,35,67,68,64,-9999,0
1111,大雷山,玉环市,清港镇,28.31528,121.3458,K8521,2022-02-06 22:00:00,7,85,36,38,36,-9999,0
1112,分水山,玉环县,芦浦镇,28.195,121.2103,K8522,2022-02-06 22:00:00,102,32,64,65,63,17578,0
1113,雕鹰山,玉环市,大麦屿街道,28.11917,121.1981,K8527,2022-02-06 22:00:00,11,74,41,41,39,-9999,0
1114,乐清二桥,玉环市,海山乡,28.2425,121.1392,K8528,2022-02-06 22:00:00,23,60,-9999,-9999,-9999,27843,0
1115,吊船湾,玉环市,沙门镇,28.22222,121.3753,K8530,2022-02-06 22:00:00,42,63,69,70,68,19821,0
1116,大雷山雪深,玉环县,清港镇,28.31528,121.3458,K8531,2022-02-06 22:00:00,-9999,-9999,-9999,-9999,-9999,-9999,0
1117,大圆头,玉环市,沙门镇,28.24195,121.4161,K8544,2022-02-06 22:00:00,29,96,56,56,55,-9999,0
1118,大岩头,玉环市,大麦屿街道,28.04667,121.1631,K8545,2022-02-06 22:00:00,42,90,40,41,39,-9999,0
1119,中鹿岛,玉环市,鸡山乡,28.05694,121.4106,K8546,2022-02-06 22:00:00,18,113,66,66,61,-9999,0
1120,双龙村,玉环市,坎门街道,28.1,121.255,K8547,2022-02-06 22:00:00,0,0,59,60,58,-9999,0
1121,垟岭村,玉环市,干江镇,28.18861,121.3475,K8548,2022-02-06 22:00:00,0,0,55,55,53,-9999,0
1122,江岩,玉环市,玉城街道,28.17333,121.1492,K8549,2022-02-06 22:00:00,21,68,51,53,48,-9999,0
1123,黄门,玉环市,坎门街道,28.07,121.2361,K8550,2022-02-06 22:00:00,8,96,51,51,46,-9999,0
1124,苔山塘,玉环市,清港镇,28.27417,121.2564,K8556,2022-02-06 22:00:00,343,31,63,65,63,-9999,0
1125,杜桥,临海市,杜桥镇,28.76667,121.4869,K8601,2022-02-06 22:00:00,38,23,67,70,67,-9999,0
1126,涌泉,临海市,涌泉镇,28.75694,121.3186,K8602,2022-02-06 22:00:00,346,22,65,69,65,-9999,0
1127,白水洋,临海市,白水洋镇,28.89917,120.9047,K8603,2022-02-06 22:00:00,6,23,54,61,54,-9999,1
1128,东塍,临海市,东塍镇,28.92889,121.2622,K8604,2022-02-06 22:00:00,77,16,56,68,56,-9999,0
1129,河头,临海市,河头镇,29.00056,121.1142,K8605,2022-02-06 22:00:00,79,9,51,58,51,-9999,2
1130,尤溪,临海市,尤溪镇,28.7425,121.1011,K8606,2022-02-06 22:00:00,161,20,54,58,54,-9999,0
1131,汛桥,临海市,汛桥镇,28.795,121.1706,K8607,2022-02-06 22:00:00,237,12,56,61,56,-9999,1
1132,牛头山,临海市,邵家渡街道,28.84,121.2647,K8608,2022-02-06 22:00:00,139,25,59,67,59,-9999,0
1133,小芝,临海市,小芝镇,28.85222,121.4519,K8609,2022-02-06 22:00:00,32,25,56,62,56,-9999,0
1134,南门坑,临海市,桃渚镇,28.83722,121.6631,K8610,2022-02-06 22:00:00,1,26,62,66,62,-9999,0
1135,白沙,临海市,上盘镇,28.71278,121.6378,K8611,2022-02-06 22:00:00,32,49,63,65,63,25311,0
1136,黄家寮,临海市, 括苍镇,28.74833,120.9744,K8612,2022-02-06 22:00:00,-9999,-9999,15,17,14,-9999,2
1137,外蔡,临海市,邵家渡街道,28.87944,121.3731,K8613,2022-02-06 22:00:00,0,0,45,54,45,-9999,1
1138,汇溪,临海市,汇溪镇,28.95778,121.2133,K8614,2022-02-06 22:00:00,228,14,52,56,52,-9999,0
1139,江南,临海市,江南街道,28.79444,121.1206,K8615,2022-02-06 22:00:00,338,18,54,59,54,-9999,0
1140,沿江,临海市,沿江镇,28.74611,121.2358,K8616,2022-02-06 22:00:00,256,18,58,62,58,-9999,0
1141,大田,临海市,大田镇,28.90444,121.2022,K8617,2022-02-06 22:00:00,16,15,59,66,59,-9999,1
1142,永丰,临海市,永丰镇,28.87278,121.0231,K8618,2022-02-06 22:00:00,103,26,55,62,55,-9999,1
1143,羊岩山,临海市,河头镇,28.97889,121.1494,K8619,2022-02-06 22:00:00,102,57,4,7,4,-9999,3
1144,桃渚镇,临海市,桃渚镇,28.80861,121.5797,K8620,2022-02-06 22:00:00,20,44,59,65,59,-9999,0
1145,医化园区,临海市,杜桥镇,28.69306,121.5456,K8621,2022-02-06 22:00:00,9,43,67,71,67,-9999,0
1146,两桥村,临海市,古城街道,28.87167,121.0797,K8622,2022-02-06 22:00:00,64,21,51,58,51,-9999,1
1147,安桥,临海市,白水洋镇,28.98,120.9153,K8623,2022-02-06 22:00:00,303,20,39,43,39,-9999,2
1148,里梅,临海市,白水洋镇,29.01528,120.9958,K8624,2022-02-06 22:00:00,92,37,36,40,35,-9999,3
1149,大洋,临海市,永丰镇,28.93361,121.0011,K8625,2022-02-06 22:00:00,329,7,43,45,43,-9999,2
1150,岭脚金,临海市,尤溪镇,28.69,121.0728,K8626,2022-02-06 22:00:00,213,11,43,47,43,-9999,1
1151,头门,临海市,上盘镇,28.69111,121.7594,K8627,2022-02-06 22:00:00,38,93,69,69,69,30000,0
1152,白水洋小学,临海市,白水洋镇,28.91,120.8944,K8628,2022-02-06 22:00:00,0,34,52,58,51,-9999,2
1153,雀儿岙,临海市,上盘镇,28.80972,121.8475,K8629,2022-02-06 22:00:00,35,98,72,72,71,30000,0
1154,田岙岛,临海市,上盘镇,28.74306,121.8481,K8630,2022-02-06 22:00:00,27,82,71,71,69,-9999,0
1155,白水洋雪深,临海市,白水洋镇,28.90055,120.8942,K8633,2022-02-06 22:00:00,-9999,-9999,-9999,-9999,-9999,-9999,0
1156,上白岩雪深,临海市,尤溪镇,28.72917,120.9675,K8634,2022-02-06 22:00:00,-9999,-9999,-9999,-9999,-9999,-9999,0
1157,安基山雪深,临海市,白水洋镇,29.00028,120.9667,K8635,2022-02-06 22:00:00,-9999,-9999,-9999,-9999,-9999,-9999,0
1158,上白岩,临海市,尤溪镇,28.72917,120.9675,K8640,2022-02-06 22:00:00,202,52,4,6,2,-9999,1
1159,小溪,临海市,江南街道,28.77222,121.1153,K8641,2022-02-06 22:00:00,204,11,46,51,46,-9999,0
1160,岭上村,临海市,邵家渡街道,28.82444,121.2322,K8642,2022-02-06 22:00:00,66,36,47,55,47,-9999,0
1161,安基山,临海市,白水洋镇,29.00028,120.9667,K8643,2022-02-06 22:00:00,100,58,-7,-5,-7,-9999,0
1162,红树林,临海市,小芝镇,28.89333,121.3694,K8644,2022-02-06 22:00:00,63,22,44,53,44,-9999,0
1163,南岙村,临海市,邵家渡街道,28.84833,121.3367,K8646,2022-02-06 22:00:00,146,20,50,61,50,-9999,0
1164,上西辽,临海市,汇溪镇,29.00528,121.2608,K8647,2022-02-06 22:00:00,168,43,10,13,10,-9999,2
1165,乌岩岙,临海市,小芝镇,28.91028,121.4022,K8648,2022-02-06 22:00:00,65,34,36,41,36,-9999,0
1166,临港,临海市,杜桥镇,28.71361,121.5781,K8649,2022-02-06 22:00:00,39,42,66,70,66,-9999,0
1167,大竹山,临海市,上盘镇,28.71583,121.7297,K8650,2022-02-06 22:00:00,21,100,71,72,70,30000,0
1168,桥东,临海市,上盘镇,28.70917,121.7539,K8651,2022-02-06 22:00:00,33,99,74,74,73,-9999,0
1169,桥西,临海市,上盘镇,28.71806,121.7117,K8652,2022-02-06 22:00:00,39,86,73,74,73,-9999,0
1170,里潘村,临海市,杜桥镇,28.75889,121.5583,K8655,2022-02-06 22:00:00,49,66,65,68,65,30000,0
1171,山安,临海市,汇溪镇,29.00583,121.1697,K8656,2022-02-06 22:00:00,79,22,22,27,22,-9999,2
1172,城西中学,临海市,括苍镇,28.85695,120.9878,K8657,2022-02-06 22:00:00,106,14,55,60,55,-9999,0
1173,北泽岛,临海市,桃渚镇,28.89583,121.7594,K8658,2022-02-06 22:00:00,13,73,65,68,65,-9999,0
1174,北固山,临海市,古城街道,28.865,121.1114,K8659,2022-02-06 22:00:00,114,31,57,64,57,-9999,0
1175,古城,临海市,古城街道,28.85194,121.1328,K8661,2022-02-06 22:00:00,58,13,64,69,64,-9999,1
1176,白岩茶场,临海市,东塍镇,28.95417,121.4064,K8662,2022-02-06 22:00:00,56,74,12,16,12,-9999,1
1177,沿岸村,临海市,永丰镇,28.96722,121.0675,K8663,2022-02-06 22:00:00,263,10,51,55,51,-9999,2
